OSEBuildingID;DataYear;BuildingType;PrimaryPropertyType;PropertyName;Address;City;State;ZipCode;TaxParcelIdentificationNumber;CouncilDistrictCode;Neighborhood;Latitude;Longitude;YearBuilt;NumberofBuildings;NumberofFloors;PropertyGFATotal;PropertyGFAParking;PropertyGFABuilding(s);ListOfAllPropertyUseTypes;LargestPropertyUseType;LargestPropertyUseTypeGFA;SecondLargestPropertyUseType;SecondLargestPropertyUseTypeGFA;ThirdLargestPropertyUseType;ThirdLargestPropertyUseTypeGFA;YearsENERGYSTARCertified;ENERGYSTARScore;SiteEUI(kBtu/sf);SiteEUIWN(kBtu/sf);SourceEUI(kBtu/sf);SourceEUIWN(kBtu/sf);SiteEnergyUse(kBtu);SiteEnergyUseWN(kBtu);SteamUse(kBtu);Electricity(kWh);Electricity(kBtu);NaturalGas(therms);NaturalGas(kBtu);TotalGHGEmissions;GHGEmissionsIntensity;DefaultData;ComplianceStatus;Outlier;Predict_ghgemissions;Predict_energyuse
1;2017;NonResidential;Hotel;Mayflower park hotel;405 Olive way;Seattle;WA;98101.0;0659000030;7.0;DOWNTOWN;47.6122;-122.33799;1927.0;1.0;12.0;88,434;0;88,434;Hotel;Hotel;88,434;;;;;;63.0;83.20;82.30;184.40;181.60;7,361,655;7,274,452.5;2,122,835.75;1,157,783.125;3,950,356.0225;12,884.63;1,288,462.99;197.63;2.235;N;Compliant;;261.99;1996614.5
2;2017;NonResidential;Hotel;Paramount Hotel;724 Pine street;Seattle;WA;98101.0;0659000220;7.0;DOWNTOWN;47.61317;-122.33393;1996.0;1.0;11.0;103,566;15,064;88,502;Hotel, Parking, Restaurant;Hotel;83,880;Parking;15,064;Restaurant;4,622;;72.0;88.20;86.80;163.80;159.80;7,804,844.5;7,678,810.5;;884,161;3,016,757.332;47,880.87;4,788,086.72;266.78;2.576;N;Compliant;;261.99;1996614.5
3;2017;Campus;Hotel;84SC9-The Westin Seattle;1900 5th Avenue;Seattle;WA;98101.0;0659000475;7.0;DOWNTOWN;47.61393;-122.3381;1969.0;1.0;41.0;956,110;196,718;759,392;Hotel, Parking, Swimming Pool;Hotel;756,493;Parking;138,635;Swimming Pool;0;;48.0;98.40;98.20;242.90;242.60;74,470,328;74,311,368;24,313,482;14,276,917;48,712,840.804;14,440.00;1,444,000.10;1,570.75;1.643;N;Compliant;;261.99;1996614.5
5;2017;NonResidential;Hotel;HOTEL MAX;620 STEWART ST;SEATTLE;WA;98101.0;0659000640;7.0;DOWNTOWN;47.61412;-122.33664;1926.0;1.0;10.0;61,320;0;61,320;Hotel;Hotel;61,320;;;;;;51.0;120.20;119.00;234.30;230.30;7,372,221.5;7,294,312;2,228,119.5;881,744.875;3,008,513.5135;21,355.88;2,135,587.89;244.32;3.984;N;Compliant;;261.99;1996614.5
8;2017;NonResidential;Hotel;WARWICK SEATTLE HOTEL (ID8);401 LENORA ST;Seattle;WA;98121.0;0659000970;7.0;DOWNTOWN;47.61375;-122.34047;1980.0;1.0;18.0;175,580;62,000;113,580;Hotel, Parking, Swimming Pool;Hotel;123,445;Parking;68,009;Swimming Pool;0;;78.0;116.10;114.10;209.90;205.50;14,335,778;14,081,251;;1,523,505.75;5,198,201.619;91,375.76;9,137,575.78;506.80;2.886;N;Compliant;;261.99;1996614.5
9;2017;Nonresidential COS;Other;West Precinct;810 Virginia St;Seattle;WA;98101.0;0660000560;7.0;DOWNTOWN;47.61623;-122.33657;1999.0;1.0;2.0;97,288;37,198;60,090;Parking, Police Station;Police Stat;50,755;Parking;40,971;;;;;261.10;261.00;591.70;591.40;13,250,532;13,249,402;;2,260,023.25;7,711,199.329;55,393.31;5,539,331.25;326.10;3.352;Y;Not Compliant;;261.99;1996614.5
10;2017;NonResidential;Hotel;Camlin;1619 9th Avenue;Seattle;WA;98101.0;0660000825;7.0;DOWNTOWN;47.6139;-122.33283;1926.0;1.0;11.0;83,008;0;83,008;Hotel;Hotel;81,352;;;;;;33.0;72.50;70.80;148.60;143.30;5,901,084;5,763,338.5;;826,919.875;2,821,450.6135;30,796.33;3,079,632.81;175.23;2.111;N;Compliant;;261.99;1996614.5
11;2017;NonResidential;Other;Paramount Theatre;911 Pine St;Seattle;WA;98101.0;0660000955;7.0;DOWNTOWN;47.61327;-122.33136;1926.0;1.0;8.0;102,761;0;102,761;Other - Entertainment/Public Assembly;Other - Ent;102,761;;;;;;;71.60;69.80;161.80;159.70;7,356,191.5;7,176,510;2,886,288.75;1,186,507.125;4,048,362.3105;4,215.40;421,539.99;192.57;1.874;N;Compliant;;261.99;1996614.5
12;2017;NonResidential;Hotel;311wh-Pioneer Square;612 2nd Ave;Seattle;WA;98104.0;0939000080;7.0;DOWNTOWN;47.60294;-122.33263;1904.0;1.0;15.0;163,984;0;163,984;Hotel;Hotel;163,984;;;;;;44.0;90.50;89.90;188.20;186.10;14,847,579;14,735,695;;2,141,435.5;7,306,577.926;75,410.00;7,541,000.00;430.73;2.627;N;Compliant;;261.99;1996614.5
13;2017;Multifamily MR (5-9);Mid-Rise Multifamily;Lyon Building;607 - 3rd Ave.;Seattle;WA;98104.0;0939000105;7.0;DOWNTOWN;47.60284;-122.33184;1910.0;1.0;6.0;63,712;1,496;62,216;Multifamily Housing;Multifamily;56,132;;;;;;2.0;89.80;89.50;189.50;189.10;5,042,044.5;5,022,714.5;1,511,604;716,596.1875;2,445,026.19175;10,854.14;1,085,413.96;148.12;2.325;N;Compliant;;261.99;1996614.5
15;2017;NonResidential;Hotel;Hotel Monaco Seattle;1101 4th Avenue;Seattle;WA;98101.0;0942000145;7.0;DOWNTOWN;47.60695;-122.33414;1969.0;1.0;11.0;153,163;19,279;133,884;Hotel;Hotel;133,884;;;;;;35.0;120.00;119.20;227.00;225.90;16,066,496;15,958,532;5,702,268;1,773,678.25;6,051,790.189;43,124.38;4,312,437.50;557.21;3.638;N;Compliant;;261.99;1996614.5
16;2017;NonResidential;Hotel;42SCF-W Seattle;1112 Fourth Avenue;Seattle;WA;98101.0;0942000165;7.0;DOWNTOWN;47.60713;-122.33323;1998.0;1.0;25.0;333,176;61,161;272,015;Hotel;Hotel;314,559;;;;;;38.0;88.40;87.10;217.20;213.10;27,806,852;27,384,446;6,340,211.5;5,351,476.5;18,259,237.818;32,074.00;3,207,400.20;582.94;1.75;N;Compliant;;261.99;1996614.5
17;2017;NonResidential;Hotel;Executive Pacific Plaza;400 Spring Street;Seattle;WA;98104.0;0942000210;7.0;DOWNTOWN;47.60699;-122.33346;1928.0;1.0;9.0;65,009;0;65,009;Hotel;Hotel;65,009;;;;;;94.0;73.00;73.00;88.50;88.50;4,742,757;4,742,757;1,569,480.875;74,412.3984375;253,895.10346875;29,193.81;2,919,380.86;239.53;3.685;N;Compliant;;261.99;1996614.5
18;2017;NonResidential;Hotel;Crowne Plaza Hotel Seattle;1113 6th Ave;Seattle;WA;98101.0;0942000235;7.0;DOWNTOWN;47.60809;-122.33212;1980.0;1.0;33.0;353,111;57,600;295,511;Hotel, Parking;Hotel;295,511;Parking;57,600;;;;65.0;75.40;;176.70;;22,282,796;;;4,010,593.5;13,684,145.022;72,189.79;7,218,978.91;440.01;1.246;N;Compliant;;261.99;1996614.5
19;2017;NonResidential;Hotel;Hotel Vintage Seattle;1100 5th Avenue;Seattle;WA;98101.0;0942000265;7.0;DOWNTOWN;47.60755;-122.33244;1922.0;1.0;11.0;92,190;25,200;66,990;Hotel, Parking;Hotel;67,390;Parking;25,200;;;;34.0;172.20;171.30;310.80;309.70;11,603,445;11,542,387;5,626,128;1,108,215.625;3,781,231.7125;21,960.84;2,196,084.18;431.37;4.679;N;Compliant;;261.99;1996614.5
21;2017;Nonresidential COS;Other;The Seattle Public Library - Central Library;1000 Fourth Avenue;Seattle;WA;98154.0;0942000275;7.0;DOWNTOWN;47.60649;-122.33297;2004.0;1.0;11.0;412,000;57,000;355,000;Data Center, Library, Parking;Library;364,913;Parking;49,000;Data Center;1,074;;;43.70;43.60;133.20;133.10;15,986,807;15,965,283;753,683.625;4,464,572.5;15,233,121.37;;;103.09;0.25;N;Compliant;;261.99;1996614.5
22;2017;NonResidential;Other;Downtown Seattle YMCA;909 4th Avenue;Seattle;WA;98104.0;0942000350;7.0;DOWNTOWN;47.60546;-122.33279;1930.0;1.0;6.0;103,911;0;103,911;Fitness Center/Health Club/Gym, Office, Swimming Pool;Fitness Cen;90,000;Office;40,000;Swimming Pool;0;;;93.70;93.70;190.40;190.40;12,175,522;12,177,365;5,704,005;1,555,010.375;5,305,695.3995;11,658.21;1,165,821.00;387.10;3.725;N;Compliant;;261.99;1996614.5
23;2017;NonResidential;Hotel;Renaissance Seattle Hotel;515 Madison Street;Seattle;WA;98104.0;0942000430;7.0;DOWNTOWN;47.60681;-122.33078;1983.0;1.0;28.0;416,281;85,000;331,281;Hotel, Parking;Hotel;348,329;Parking;85,000;;;;37.0;97.50;95.70;226.70;222.30;33,959,408;33,326,178;;6,071,429.5;20,715,717.454;132,436.86;13,243,685.94;789.08;1.896;N;Compliant;;261.99;1996614.5
24;2017;NonResidential;Mixed Use Property;The Rainier Club;820 4th Ave.;Seattle;WA;98104.0;0942000510;7.0;DOWNTOWN;47.60515;-122.33159;1907.0;1.0;5.0;57,452;0;57,452;Office, Other, Other - Lodging/Residential, Restaurant, Social/Meeting Hall;Social/Meet;16,442;Restaurant;15,505;Office;9,741;;;129.10;128.30;263.80;262.90;7,418,679;7,371,858;1,574,400.875;998,932.8125;3,408,358.75625;24,359.19;2,435,919.14;227.17;3.954;N;Compliant;;261.99;1996614.5
25;2017;NonResidential;Hotel;Arctic Club Seattle;700 3rd Ave;Seattle;WA;98104.0;0942000610;7.0;DOWNTOWN;47.60376;-122.33194;1916.0;1.0;10.0;104,352;0;104,352;Hotel;Hotel;104,352;;;;;;53.0;85.10;85.10;205.10;205.10;8,884,319;8,884,319;2,744,007.25;1,634,083;5,575,491.196;5,648.20;564,820.02;198.94;1.906;N;Compliant;;261.99;1996614.5
26;2017;NonResidential;Other;King County Courthouse;516 3RD AVE;Seattle;WA;98104.0;0942000860;7.0;DOWNTOWN;47.60265;-122.33051;1916.0;1.0;10.0;540,360;0;540,360;Courthouse;Courthouse;537,150;;;;;;75.0;91.00;89.60;192.00;190.50;48,880,476;48,101,932;;7,263,115.5;24,781,750.086;240,987.22;24,098,721.88;1,382.41;2.558;N;Compliant;;261.99;1996614.5
27;2017;NonResidential;Other;King County Correctional Facility;500 5TH AVE;Seattle;WA;98104.0;0942001010;3.0;DOWNTOWN;47.60378;-122.32842;1985.0;1.0;19.0;385,274;0;385,274;Other;Other;385,274;;;;;;;124.00;123.00;210.20;209.20;47,756,124;47,386,200;;4,324,419;14,754,917.628;330,012.03;33,001,203.12;1,813.74;4.708;N;Compliant;;261.99;1996614.5
28;2017;SPS-District K-12;K-12 School;Graham Hill Elementary;5149 S. Graham St.;Seattle;WA;98118.0;1102000138;2.0;SOUTHEAST;47.54576;-122.26853;1961.0;1.0;2.0;56,228;0;56,228;K-12 School;K-12 School;58,916;;;;;;95.0;28.60;27.80;61.60;60.90;1,682,550.25;1,639,540.625;;261,348.5;891,721.082;7,908.29;790,829.00;45.69;0.813;N;Compliant;;261.99;1996614.5
29;2017;NonResidential;Hotel;WATERTOWN HOTEL;4242 ROOSEVELT WAY NE;Seattle;WA;98105.0;1142000755;4.0;NORTHEAST;47.65959;-122.31755;2001.0;1.0;6.0;88,592;30,586;58,006;Hotel, Parking;Hotel;67,770;Parking;30,586;;;;90.0;57.00;56.00;131.20;128.80;3,863,650;3,791,958.5;;677,983.8125;2,313,280.76825;15,503.69;1,550,368.95;91.91;1.037;N;Compliant;;261.99;1996614.5
30;2017;NonResidential;University;Main Campus Center;1000 Lenora St.;Seattle;WA;98121.0;0660001420;7.0;DOWNTOWN;47.61816;-122.33629;1928.0;1.0;7.0;126,593;0;126,593;College/University;College/Uni;125,000;;;;;;;97.30;97.40;181.50;181.60;12,163,565;12,169,801;;1,391,368;4,747,347.616;74,162.17;7,416,217.19;413.52;3.266;N;Compliant;;261.99;1996614.5
31;2017;NonResidential;Other;Seattle Honda;1015 & 1017 Olive Way;Seattle;WA;98101.0;0660001725;7.0;DOWNTOWN;47.615;-122.33081;1930.0;1.0;2.0;67,224;0;67,224;Automobile Dealership;Automobile;67,224;;;;;;;0.00;0.00;0.00;0.00;0;0;;0;0;;;0.00;0.0;N;Not Compliant;;261.99;1996614.5
32;2017;NonResidential;Hotel;Homewood Suites;1011 Pike ST;Seattle;WA;98101.0;0660001832;7.0;EAST;47.61301;-122.32929;1991.0;1.0;8.0;158,676;30,301;128,375;Hotel, Parking, Retail Store, Swimming Pool;Hotel;112,676;Parking;42,000;Retail Store;4,500;;;45.70;45.70;56.80;56.80;5,351,128;5,351,723.5;;145,319.703125;495,830.8270625;48,552.97;4,855,297.27;259.92;1.638;Y;Not Compliant;;261.99;1996614.5
33;2017;NonResidential;Hotel;Marriott Springhill Suites;1800 Yale Ave;Seattle;WA;98101.0;0660002680;7.0;DOWNTOWN;47.61784;-122.32966;2001.0;1.0;10.0;171,866;38,281;133,585;Hotel;Hotel;128,909;;;;;;58.0;89.80;88.20;186.60;183.30;11,581,091;11,364,507;;1,668,840.375;5,694,083.3595;58,870.07;5,887,006.64;336.22;1.956;N;Compliant;;261.99;1996614.5
34;2017;SPS-District K-12;K-12 School;Meany Building;301/300 21st Ave. E.;Seattle;WA;98112.0;0688000090;3.0;Central;47.62266;-122.30547;1955.0;1.0;1.0;126,351;0;126,351;K-12 School;K-12 School;126,351;;;;;;99.0;27.40;27.40;41.50;41.50;3,468,018.75;3,462,376.5;;225,068.5;767,933.722;27,000.85;2,700,084.96;146.58;1.16;Y;Not Compliant;;261.99;1996614.5
35;2017;NonResidential;Hotel;Hotel Five;2200 5th ave;Seattle;WA;98121.0;0697000170;7.0;DOWNTOWN;47.61558;-122.34186;1978.0;1.0;5.0;68,410;16,200;52,210;Hotel, Parking;Hotel;52,210;Parking;15,400;;;;71.0;83.80;83.00;184.70;182.10;4,376,607;4,332,159;;708,199.5;2,416,376.694;19,602.30;1,960,229.88;114.10;1.668;N;Compliant;;261.99;1996614.5
36;2017;SPS-District K-12;K-12 School;Jane Addams Middle;11051 34th Ave. N.E.;Seattle;WA;98125.0;0752000170;5.0;NORTH;47.70994;-122.29301;1949.0;1.0;2.0;160,645;0;160,645;K-12 School;K-12 School;164,229;;;;;;70.0;48.00;46.40;74.50;72.80;7,890,891.5;7,620,227.5;;554,486.875;1,891,909.2175;59,989.82;5,998,982.03;326.43;2.032;Y;Not Compliant;;261.99;1996614.5
37;2017;SPS-District K-12;K-12 School;John Hay Elementary;201 Garfield St.;Seattle;WA;98109.0;0809000005;7.0;MAGNOLIA / QUEEN ANNE;47.6329;-122.35172;1989.0;1.0;2.0;51,582;0;51,582;K-12 School;K-12 School;55,166;;;;;;96.0;26.60;26.60;83.50;83.60;1,467,507;1,468,128.75;;430,101.6875;1,467,506.95775;;;6.07;0.118;N;Compliant;;261.99;1996614.5
38;2017;NonResidential;Small- and Mid-Sized Office;Good Shepherd Center;4649 Sunnyside Ave. N.;Seattle;WA;98070.0;0825049102;1.0;LAKE UNION;47.6641;-122.33118;1906.0;1.0;3.0;87,262;0;87,262;K-12 School, Multifamily Housing, Office, Other - Entertainment/Public Assembly;Office;40,943;K-12 School;18,153;Other - Entertainment/Public Assembly;4,307;;;67.10;65.40;108.50;106.80;4,523,929;4,410,662.5;;359,794.8125;1,227,619.90025;32,963.09;3,296,308.98;180.15;2.064;N;Compliant;;261.99;1996614.5
40;2017;NonResidential;Hotel;Silver Cloud University;5036 25th Ave NE;Seattle;WA;98105.0;0925049117;4.0;NORTHEAST;47.66583;-122.29965;1994.0;1.0;4.0;81,871;0;81,871;Hotel;Hotel;81,871;;;;;;28.0;87.70;86.50;173.90;170.40;7,177,935;7,085,024.5;;940,105.625;3,207,640.3925;39,702.95;3,970,294.53;224.13;2.738;N;Compliant;;261.99;1996614.5
41;2017;NonResidential;Self-Storage Facility;08781-University Village;2746 Ne 45th St Suite 100;Seattle;WA;98105.0;0925049330;4.0;NORTHEAST;47.66172;-122.29598;1955.0;1.0;2.0;110,356;0;110,356;Self-Storage Facility;Self-Storag;26,225;;;;;;;11.20;11.20;31.20;31.20;294,099.1875;293,061.59375;;71,600;244,299.2;498.00;49,800.00;3.66;0.033;N;Compliant;;261.99;1996614.5
43;2017;Campus;Mixed Use Property;Plant 2 Site;7755 E MARGINAL WAY S;Seattle;WA;98108.0;0022000005;2.0;GREATER DUWAMISH;47.53493;-122.31788;1992.0;1.0;3.0;494,835;0;494,835;Energy/Power Station, Laboratory, Manufacturing/Industrial Plant, Non-Refrigerated Warehouse, Office;Office;757,027;Laboratory;639,931;Non-Refrigerated Warehouse;459,748;;;286.40;286.50;468.50;468.60;579,302,208;579,556,160;;47,596,328;162,398,671.136;4,169,035.00;416,903,500.00;22,813.61;46.103;N;Compliant;;261.99;1996614.5
46;2017;Campus;Warehouse;Seattle 11-13;3301 S NORFOLK ST;Seattle;WA;98118.0;0323049024;2.0;GREATER DUWAMISH;47.51138;-122.28875;1961.0;3.0;2.0;714,095;0;714,095;Non-Refrigerated Warehouse, Office, Refrigerated Warehouse;Non-Refrige;616,000;Refrigerated Warehouse;276,000;Office;71,000;;;47.00;46.90;147.60;147.40;45,259,796;45,199,188;;13,264,886;45,259,791.032;;;187.24;0.262;N;Compliant;;261.99;1996614.5
50;2017;SPS-District K-12;K-12 School;Lawton Elementary;4000 27th Ave. W.;Seattle;WA;98199.0;0369000400;7.0;MAGNOLIA / QUEEN ANNE;47.65671;-122.39047;1990.0;1.0;2.0;54,986;0;54,986;K-12 School;K-12 School;54,986;;;;;2,016;97.0;31.50;31.10;79.30;78.90;1,733,154;1,712,583.75;;356,143.3125;1,215,160.98225;5,179.93;517,993.02;32.54;0.592;N;Compliant;;261.99;1996614.5
51;2017;SPS-District K-12;K-12 School;Eckstein Middle;3003 N.E. 75th St.;Seattle;WA;98115.0;0425049022;4.0;NORTHEAST;47.68252;-122.29498;1950.0;1.0;2.0;175,565;0;175,565;K-12 School;K-12 School;182,861;;;;;;91.0;41.50;40.80;61.90;61.20;7,584,022;7,469,367;;469,520.90625;1,602,005.332125;59,820.17;5,982,016.80;324.33;1.847;N;Compliant;;261.99;1996614.5
52;2017;NonResidential;Small- and Mid-Sized Office;SBC52;5305 Shilshole Ave NW;Seattle;WA;98107.0;0467000429;6.0;BALLARD;47.66587;-122.38476;1961.0;1.0;2.0;94,900;0;94,900;Non-Refrigerated Warehouse, Office;Office;55,586;Non-Refrigerated Warehouse;39,314;;;;58.0;70.50;69.30;167.50;166.10;6,693,368.5;6,573,501.5;;1,243,461.875;4,242,691.9175;24,506.76;2,450,676.17;147.71;1.556;N;Compliant;;261.99;1996614.5
53;2017;NonResidential;Small- and Mid-Sized Office;El Centro de la Raza;2524 16th Ave S;Seattle;WA;98144.0;0570000340;2.0;GREATER DUWAMISH;47.58034;-122.31132;1900.0;1.0;2.0;52,554;0;52,554;Office, Other - Education;Office;51,029;Other - Education;7,849;;;;95.0;40.80;40.20;76.90;76.20;2,404,192.5;2,366,052.75;;280,878.5;958,357.442;14,458.35;1,445,834.96;80.75;1.537;N;Compliant;;261.99;1996614.5
54;2017;NonResidential;K-12 School;Blanchet High School;8200 Wallingford Ave. N;Seattle;WA;98103.0;0625049002;6.0;NORTHWEST;47.68891;-122.33553;1954.0;1.0;3.0;175,015;0;175,015;K-12 School;K-12 School;175,015;;;;;;92.0;48.90;47.50;83.60;82.10;8,565,306;8,315,324;;791,119.375;2,699,299.3075;58,660.06;5,866,005.86;322.71;1.844;N;Compliant;;261.99;1996614.5
55;2017;NonResidential;Self-Storage Facility;Vine Street;11 Vine Street;Seattle;WA;98121.0;0653000225;7.0;DOWNTOWN;47.61351;-122.35129;1911.0;1.0;3.0;70,586;0;70,586;Office, Self-Storage Facility, Vocational School;Self-Storag;38,439;Vocational School;28,197;Office;3,859;;;27.50;26.80;65.60;64.90;1,938,035.875;1,889,896;;363,233.1875;1,239,351.63575;6,986.84;698,683.98;42.23;0.598;N;Compliant;;261.99;1996614.5
56;2017;NonResidential;Hotel;Seattle Hilton Hotel;1301 Sixth Ave;Seattle;WA;98101.0;1975700040;7.0;DOWNTOWN;47.60946;-122.33337;1969.0;1.0;24.0;332,210;205,970;126,240;Hotel;Hotel;348,630;;;;;;84.0;43.90;;100.40;;15,316,728;;;2,651,372;9,046,481.264;62,702.46;6,270,246.09;370.44;1.115;N;Compliant;;261.99;1996614.5
57;2017;NonResidential;Large Office;5th and Pine;413 Pine Street;Seattle;WA;98101.0;1975700200;7.0;DOWNTOWN;47.6113;-122.33659;1973.0;1.0;5.0;168,115;0;168,115;Data Center, Office, Retail Store;Office;103,362;Retail Store;65,676;Data Center;493;201,820,172,016;85.0;56.40;55.50;177.20;174.10;9,567,585;9,402,433;;2,804,098.5;9,567,584.082;;;39.58;0.235;N;Compliant;;261.99;1996614.5
58;2017;NonResidential;Other;1525 4th Avenue;1525 4th Ave;Seattle;WA;98101.0;1975700365;7.0;DOWNTOWN;47.61076;-122.33765;1920.0;1.0;2.0;57,428;0;57,428;Other - Mall, Personal Services (Health/Beauty, Dry Cleaning, etc);Other - Mal;51,747;Personal Services (Health/Beauty, Dry Cleaning, etc);5,681;;;;;20.30;20.30;46.70;46.70;1,164,053.75;1,164,053.75;;204,854;698,961.848;4,650.92;465,091.99;27.59;0.48;N;Compliant;;261.99;1996614.5
59;2017;NonResidential;Small- and Mid-Sized Office;Gibraltar Tower;1520 3rd Ave;Seattle;WA;98101.0;1975700380;7.0;DOWNTOWN;47.61048;-122.33794;1910.0;1.0;8.0;59,400;0;59,400;Office, Retail Store;Office;49,958;Retail Store;5,000;;;;44.0;67.70;67.70;212.50;212.50;3,720,013;3,720,013;;1,090,273.375;3,720,012.7555;;;15.39;0.259;N;Compliant;;261.99;1996614.5
60;2017;NonResidential;Mixed Use Property;Mann Building;1401 3rd Avenue;Seattle;WA;98101.0;1975700525;7.0;DOWNTOWN;47.60886;-122.33744;1926.0;1.0;2.0;52,549;0;52,549;Office, Other - Entertainment/Public Assembly, Restaurant;Other - Ent;23,500;Restaurant;23,500;Office;5,459;;;307.60;304.50;510.00;506.40;16,138,114;15,974,657;;1,375,184;4,692,127.808;114,459.86;11,445,985.94;627.31;11.938;N;Compliant;;261.99;1996614.5
62;2017;NonResidential;Hotel;Roosevelt Hotel;1531 7th Ave;Seattle;WA;98101.0;1976700010;7.0;DOWNTOWN;47.61233;-122.33432;1930.0;1.0;20.0;98,634;10,043;88,591;Hotel, Parking, Restaurant;Hotel;83,591;Parking;10,043;Restaurant;5,000;;75.0;55.00;54.10;157.70;154.90;4,871,794;4,791,904;;1,241,855.875;4,237,212.2455;6,345.81;634,581.01;51.23;0.519;N;Compliant;;261.99;1996614.5
63;2017;Campus;Hotel;Sheraton Seattle Hotel;1400 6th Avenue;Seattle;WA;98101.0;1976700095;7.0;DOWNTOWN;47.61087;-122.33339;1982.0;1.0;34.0;1,083,197;156,583;926,614;Hotel, Parking, Swimming Pool;Hotel;994,212;Parking;117,668;Swimming Pool;0;;62.0;86.40;85.90;192.00;191.40;85,870,096;85,364,488;12,991,603;13,839,272;47,219,596.064;256,588.91;25,658,890.62;2,248.74;2.076;N;Compliant;;261.99;1996614.5
65;2017;NonResidential;Hotel;Inn at the Market;86 Pine St;Seattle;WA;98101.0;1977200050;7.0;DOWNTOWN;47.60997;-122.34138;1985.0;1.0;7.0;71,150;0;71,150;Hotel, Parking, Restaurant, Retail Store;Hotel;41,340;Parking;13,730;Retail Store;9,604;;98.0;94.00;94.00;215.80;215.80;5,397,353.5;5,397,353.5;;943,223.125;3,218,277.3025;21,790.76;2,179,075.98;129.05;1.814;N;Compliant;;261.99;1996614.5
66;2017;NonResidential;Hotel;Moore Hotel INC;1926 2nd Ave;Seattle;WA;98101.0;1977201035;7.0;DOWNTOWN;47.61155;-122.34114;1908.0;1.0;7.0;122,810;0;122,810;Hotel, Other - Entertainment/Public Assembly, Retail Store;Hotel;88,360;Other - Entertainment/Public Assembly;26,450;Retail Store;8,000;;98.0;52.50;51.00;78.20;76.60;6,445,936.5;6,263,231.5;;397,251.8125;1,355,423.18425;50,905.13;5,090,513.28;275.96;2.247;N;Compliant;;261.99;1996614.5
67;2017;NonResidential;Hotel;QUALITY INN;618 JOHN ST;SEATTLE;WA;98109.0;1991200730;7.0;LAKE UNION;47.61986;-122.34413;1959.0;1.0;5.0;113,173;42,546;70,627;Hotel, Parking;Hotel;70,627;Parking;42,546;;;;86.0;78.20;76.50;173.10;167.80;5,524,202.5;5,403,693;;901,151.375;3,074,728.4915;24,494.74;2,449,473.83;142.81;1.262;N;Compliant;;261.99;1996614.5
68;2017;NonResidential;Hotel;Rainier Hospitality;211 Dexter Ave N;Seattle;WA;98109.0;1991200935;7.0;LAKE UNION;47.62001;-122.34274;2000.0;1.0;7.0;150,453;34,735;115,718;Hotel;Hotel;110,547;;;;;2,014;84.0;63.90;63.00;135.30;132.70;7,067,429.5;6,964,738;;1,057,409.625;3,607,881.6405;34,595.47;3,459,547.27;198.66;1.32;N;Compliant;;261.99;1996614.5
69;2017;NonResidential;Hotel;Sequim Lodging Corp;226 Aurora Ave N;Seattle;WA;98109.0;1991200940;7.0;LAKE UNION;47.62025;-122.34314;1997.0;1.0;6.0;116,300;28,200;88,100;Hotel;Hotel;88,490;;;;;;82.0;66.90;66.00;146.90;144.00;5,923,139;5,840,688.5;;950,685.1875;3,243,737.85975;26,794.01;2,679,400.98;155.72;1.339;N;Compliant;;261.99;1996614.5
70;2017;NonResidential;Hotel;Homewood Suites by Hilton Seattle Downtonw;206 Western Ave West;Seattle;WA;98119.0;1992200235;7.0;MAGNOLIA / QUEEN ANNE;47.62023;-122.35951;1998.0;1.0;6.0;155,602;36,744;118,858;Hotel;Hotel;155,602;;;;;;85.0;45.30;44.40;107.80;105.00;7,048,202;6,909,994.5;;1,314,385.5;4,484,683.326;25,635.18;2,563,517.97;154.70;0.994;N;Compliant;;261.99;1996614.5
73;2017;NonResidential;K-12 School;Seattle Hebrew Academy;1617 Interlaken Drive East;Seattle;WA;98136.0;2125049015;3.0;EAST;47.63442;-122.30793;1911.0;1.0;3.0;56,072;0;56,072;K-12 School;K-12 School;56,072;;;;;;70.0;64.10;62.30;87.90;86.00;3,595,219.75;3,495,458;;161,810.90625;552,098.812125;30,431.21;3,043,120.90;163.90;2.923;N;Compliant;;261.99;1996614.5
77;2017;NonResidential;Hotel;Comfort Suites Seattle Center;601 Roy St;Seattle;WA;98109.0;2249000170;7.0;MAGNOLIA / QUEEN ANNE;47.62519;-122.34456;1999.0;1.0;4.0;122,942;44,891;78,051;Hotel, Parking;Hotel;78,051;Parking;44,891;;;;93.0;72.50;71.70;144.00;141.30;5,659,957.5;5,595,112.5;;742,245.375;2,532,541.2195;31,274.16;3,127,416.02;176.57;1.436;N;Compliant;;261.99;1996614.5
82;2017;NonResidential;Small- and Mid-Sized Office;Dept of Social & Health Services;1700 E. Cherry St;Seattle;WA;98122.0;2254501944;3.0;CENTRAL;47.60823;-122.30956;1962.0;1.0;2.0;54,984;0;54,984;Office;Office;54,984;;;;;;69.0;66.70;64.50;147.80;143.40;3,667,950;3,544,293.5;;599,550.875;2,045,667.5855;16,222.82;1,622,282.03;94.62;1.721;N;Compliant;;261.99;1996614.5
84;2017;NonResidential;Senior Care Community;PSSA - The Mount;4831 35th Ave SW;Seattle;WA;98126.0;2324039001;1.0;SOUTHWEST;47.55837;-122.37751;1922.0;1.0;5.0;371,257;74,944;296,313;Parking, Senior Care Community;Senior Care;296,313;Parking;0;;;;47.0;161.80;161.90;251.40;251.50;47,947,440;47,970,628;;3,385,356.75;11,550,837.231;363,966.00;36,396,600.00;1,980.81;5.335;N;Compliant;;261.99;1996614.5
85;2017;NonResidential;Senior Care Community;Foss Home and Village;13023 Greenwood Ave. N;Seattle;WA;98133.0;2426039059;5.0;NORTHWEST;47.72426;-122.35599;1970.0;1.0;2.0;93,397;0;93,397;Senior Care Community;Senior Care;93,397;;;;;;1.0;185.80;181.80;322.10;316.50;17,354,576;16,977,500;;1,663,737.75;5,676,673.203;116,779.03;11,677,903.12;643.70;6.892;N;Compliant;;261.99;1996614.5
86;2017;NonResidential;Hotel;SCCA - ALLIANCE HOUSE;207 Pontius Ave N;Seattle;WA;98109.0;2467400430;7.0;LAKE UNION;47.61988;-122.33211;2008.0;1.0;6.0;84,103;20,732;63,371;Hotel, Parking;Hotel;63,371;Parking;20,732;;;;63.0;69.40;69.40;180.20;180.20;4,397,191.5;4,397,576.5;;954,108.1875;3,255,417.13575;11,417.74;1,141,774.02;74.11;0.881;N;Compliant;;261.99;1996614.5
87;2017;SPS-District K-12;K-12 School;Arbor Heights Elementary;3701 S.W. 104th St.;Seattle;WA;98146.0;2518400005;1.0;SOUTHWEST;47.5097;-122.37759;1948.0;1.0;2.0;53,352;0;53,352;K-12 School;K-12 School;90,000;;;;;;99.0;22.60;22.50;49.60;49.50;2,030,587.125;2,020,764.25;;326,772.8125;1,114,948.83625;9,156.38;915,637.99;53.24;0.998;N;Compliant;;261.99;1996614.5
89;2017;NonResidential;Medical Office;Polyclinic North && South;1200 Harvard Ave;Seattle;WA;98122.0;1978201270;3.0;EAST;47.61244;-122.3214;1965.0;0.0;3.0;241,014;121,709;119,305;Medical Office;Medical Off;179,014;;;;;;56.0;82.80;82.20;200.60;198.70;14,823,875;14,707,000;;2,853,244.5;9,735,270.234;50,886.04;5,088,603.91;310.53;1.288;N;Compliant;;261.99;1996614.5
95;2017;NonResidential;Hotel;Sorrento Hotel;900 Madison St.;Seattle;WA;98104.0;1979200270;3.0;EAST;47.60898;-122.32693;1908.0;1.0;7.0;76,631;0;76,631;Hotel;Hotel;76,631;;;;;;74.0;98.70;98.10;172.50;170.50;7,563,180.5;7,515,292;;740,188.1875;2,525,522.09575;50,376.58;5,037,658.20;278.00;3.628;N;Compliant;;261.99;1996614.5
96;2017;NonResidential;Mixed Use Property;Central Seattle;921 Terry Ave.;Seattle;WA;98104.0;1979200290;3.0;EAST;47.60845;-122.32637;1983.0;1.0;6.0;99,780;9,341;90,439;Data Center, Medical Office, Non-Refrigerated Warehouse, Office, Other, Parking;Medical Off;40,174;Parking;20,868;Office;17,020;;;196.20;193.90;482.60;476.60;14,841,480;14,668,101;5,212,174;2,822,188;9,629,305.456;;;316.92;3.176;Y;Not Compliant;;261.99;1996614.5
98;2017;NonResidential;Retail Store;400 Westlake Avenue N.;400 Westlake Ave N;Seattle;WA;98109.0;1983200230;7.0;LAKE UNION;47.62237;-122.33805;1929.0;1.0;2.0;58,320;0;58,320;Retail Store;Retail Stor;62,280;;;;;;9.0;14.90;14.30;24.40;23.80;926,844.625;890,371.8125;;76,925.1015625;262,468.44653125;6,643.76;664,376.03;36.37;0.624;N;Compliant;;261.99;1996614.5
100;2017;NonResidential;Large Office;City Place III - SEDO;551 Boren Ave. North;Seattle;WA;98109.0;1983200325;7.0;LAKE UNION;47.62424;-122.33646;2010.0;1.0;5.0;316,306;0;316,306;Bank Branch, Office, Other, Parking, Retail Store;Office;247,882;Parking;150,726;Retail Store;26,464;201,820,172,016,201,520,142,013;95.0;57.00;57.00;155.90;155.90;16,381,541;16,384,160;;3,870,693.5;13,206,806.222;31,747.33;3,174,733.01;223.25;0.706;N;Compliant;;261.99;1996614.5
102;2017;NonResidential;Hotel;Residence Inn Seattle - Lake Union;800 Fairview Ave. N;Seattle;WA;98109.0;1984200065;3.0;LAKE UNION;47.62642;-122.33325;1990.0;1.0;7.0;282,863;44,766;238,097;Hotel, Parking;Hotel;235,788;Parking;51,537;;;;46.0;81.30;80.50;178.10;177.40;19,158,784;18,986,238;;3,069,409.25;10,472,824.361;86,859.59;8,685,958.59;504.64;1.784;N;Compliant;;261.99;1996614.5
103;2017;Nonresidential COS;Other;Key Arena;334 1st Ave. N;Seattle;WA;98109.0;1985200003;7.0;MAGNOLIA / QUEEN ANNE;47.62141;-122.35086;1962.0;1.0;1.0;389,000;0;389,000;Other;Other;368,000;;;;;;;72.10;71.60;164.20;163.50;26,547,420;26,365,384;7,990,000;4,409,406.5;15,044,894.978;8,855.24;885,523.93;534.03;1.373;N;Compliant;;261.99;1996614.5
104;2017;Nonresidential COS;Other;Bagley Wright Theatre;151 Mercer St.;Seattle;WA;98109.0;1985200003;7.0;MAGNOLIA / QUEEN ANNE;47.62208;-122.35398;1962.0;1.0;1.0;91,213;0;91,213;Other;Other;65,000;;;;;;;91.80;91.60;227.00;226.80;5,967,398.5;5,956,533;1,841,070.125;1,152,100.75;3,930,967.759;;;114.14;1.251;N;Compliant;;261.99;1996614.5
106;2017;Nonresidential COS;Other;Armory;305 Harrison St.;Seattle;WA;98109.0;1985200305;7.0;MAGNOLIA / QUEEN ANNE;47.62141;-122.35086;1938.0;1.0;5.0;396,085;0;396,085;Other;Other;278,500;;;;;;;104.80;103.70;168.50;167.30;29,197,694;28,870,044;16,949,830;1,956,290.375;6,674,862.7595;0.00;0.00;928.69;2.345;N;Compliant;;261.99;1996614.5
107;2017;NonResidential;Large Office;City Place IV - SEDO;333 Boren Ave. N.;Seattle;WA;98109.0;1986200410;7.0;LAKE UNION;47.62112;-122.33629;2010.0;1.0;12.0;571,329;0;571,329;Office, Other, Parking;Office;598,801;Parking;310,699;Other;26,203;201,820,172,016,201,520,142,013;92.0;62.50;61.80;172.10;169.90;39,074,696;38,648,836;;9,326,504;31,822,031.648;72,526.59;7,252,659.38;516.84;0.905;N;Compliant;;261.99;1996614.5
110;2017;Nonresidential COS;Other;Exhibition Hall;225 Mercer St.;Seattle;WA;98109.0;1988200440;7.0;MAGNOLIA / QUEEN ANNE;47.62395;-122.35077;1962.0;1.0;2.0;52,000;0;52,000;Other;Other;52,000;;;;;;;54.70;54.40;117.90;117.60;2,844,245.75;2,829,869;1,186,200;416,897.90625;1,422,455.656125;;;68.94;1.326;N;Compliant;;261.99;1996614.5
111;2017;Nonresidential COS;Other;Mercer Arena;363 Mercer St.;Seattle;WA;98109.0;1988200700;7.0;MAGNOLIA / QUEEN ANNE;47.62395;-122.35143;1928.0;1.0;1.0;60,696;0;60,696;Other;Other;108,000;;;;;;;2.60;2.60;8.10;8.10;277,136.09375;277,136.09375;;81,223.8984375;277,135.94146875;0.00;0.00;1.15;0.019;N;Not Compliant;Low outlier;261.99;1996614.5
112;2017;Nonresidential COS;Other;McCaw Hall;321 Mercer St.;Seatle;WA;98109.0;1988200700;7.0;MAGNOLIA / QUEEN ANNE;47.62395;-122.35143;1928.0;1.0;2.0;262,048;0;262,048;Other;Other;296,000;;;;;;;76.20;74.30;181.60;179.20;22,553,604;21,981,486;6,062,000;4,101,543.25;13,994,465.569;5,104.76;510,475.98;407.27;1.554;N;Compliant;;261.99;1996614.5
113;2017;NonResidential;Small- and Mid-Sized Office;KCTS9;401 Mercer St;Seattle;WA;98109.0;1988200705;7.0;MAGNOLIA / QUEEN ANNE;47.62391;-122.34837;1986.0;0.0;2.0;66,240;2,352;63,888;Data Center, Distribution Center, Office, Parking, Retail Store;Office;45,900;Data Center;5,181;Distribution Center;4,551;;;79.50;79.50;249.60;249.60;4,422,798.5;4,422,798.5;;1,296,247.875;4,422,797.7495;;;18.30;0.276;Y;Not Compliant;;261.99;1996614.5
114;2017;NonResidential;Large Office;Bill and Melinda Gates Foundation;500 5th Ave N;Seattle;WA;98109.0;1988201155;7.0;MAGNOLIA / QUEEN ANNE;47.62419;-122.34443;2010.0;1.0;6.0;920,598;303,707;616,891;Office, Other, Parking;Office;729,584;Parking;185,014;Other;6,000;;93.0;52.60;51.60;133.80;132.60;38,695,232;37,935,880;;8,106,487.5;27,659,335.35;110,358.95;11,035,894.53;700.55;0.761;N;Compliant;;261.99;1996614.5
115;2017;NonResidential;Small- and Mid-Sized Office;J.G. Scripps Building;221 1st Ave. W;Seattle;WA;98033.0;1989200850;7.0;MAGNOLIA / QUEEN ANNE;47.62053;-122.35842;1970.0;1.0;4.0;76,213;25,930;50,283;Office, Other, Parking;Office;48,546;Parking;21,454;Other;2,406;;71.0;71.90;70.30;191.30;189.60;3,664,215.5;3,580,430.75;;827,425.3125;2,823,175.16625;8,410.40;841,039.94;56.35;0.739;N;Compliant;;261.99;1996614.5
116;2017;NonResidential;Hotel;MEDITERRANEAN INN (ID#116);425 queen anne ave N.;Seattle;WA;98109.0;1989201125;7.0;MAGNOLIA / QUEEN ANNE;47.62291;-122.35708;2002.0;1.0;6.0;96,910;36,934;59,976;Hotel, Parking;Hotel;59,976;Parking;36,934;;;;48.0;101.80;100.40;202.50;198.20;6,104,526.5;6,022,328.5;;804,627.1875;2,745,387.96375;33,591.38;3,359,138.28;189.76;1.958;N;Compliant;;261.99;1996614.5
117;2017;NonResidential;Hotel;UNIVERSITY INN;4140 ROOSEVELT WAY NE;Seattle;WA;98105.0;1142001871;4.0;NORTHEAST;47.65772;-122.31756;1962.0;2.0;4.0;50,017;0;50,017;Hotel, Swimming Pool;Hotel;50,017;Swimming Pool;0;;;;58.0;109.60;108.40;204.10;200.30;5,480,266;5,419,661.5;;624,695.6875;2,131,461.68575;33,488.04;3,348,803.91;186.67;3.732;N;Compliant;;261.99;1996614.5
118;2017;SPS-District K-12;K-12 School;Pathfinder K-8;1901 SW Genesee St.;Seattle;WA;98106.0;1324039116;1.0;DELRIDGE;47.5636;-122.358;1999.0;1.0;3.0;74,468;0;74,468;K-12 School;K-12 School;75,364;;;;;;94.0;22.80;22.80;71.60;71.60;1,717,534.25;1,718,059.5;;503,380.40625;1,717,533.946125;0.00;0.00;7.11;0.095;N;Compliant;;261.99;1996614.5
119;2017;NonResidential;K-12 School;St. Joseph K-8 School;700 18th Ave. E.;Seattle;WA;98112.0;1336800825;3.0;EAST;47.62548;-122.30828;1923.0;1.0;3.0;67,743;0;67,743;K-12 School;K-12 School;67,743;;;;;;15.0;51.70;50.10;103.30;101.60;3,502,572;3,391,377.5;;465,954.1875;1,589,835.68775;19,127.36;1,912,736.13;108.16;1.597;N;Compliant;;261.99;1996614.5
120;2017;NonResidential;K-12 School;Holy Names Academy;728 21st Ave East;Seattle;WA;98112.0;1338800660;3.0;EAST;47.62644;-122.30429;1908.0;1.0;6.0;194,104;0;194,104;K-12 School;K-12 School;199,980.40625;;;;;;98.0;36.80;35.70;63.60;62.50;7,351,460;7,148,590.5;;700,735.1875;2,390,908.45975;49,605.51;4,960,550.78;273.35;1.408;N;Compliant;;261.99;1996614.5
121;2017;NonResidential;Small- and Mid-Sized Office;2100 Building;2100 24th Ave S;Seattle;WA;98144.0;1498303116;3.0;SOUTHEAST;47.58408;-122.30125;2003.0;1.0;3.0;99,433;35,752;63,681;Office, Parking;Office;63,681;Parking;35,752;;;;63.0;78.20;77.40;245.50;243.00;4,979,052;4,927,985.5;;1,459,276.5;4,979,051.418;;;20.60;0.207;N;Compliant;;261.99;1996614.5
122;2017;SPS-District K-12;K-12 School;John Muir Elementary;3301 S. Horton St.;Seattle;WA;98144.0;1524049002;2.0;SOUTHEAST;47.57324;-122.29058;1991.0;1.0;2.0;60,725;0;60,725;K-12 School;K-12 School;60,725;;;;;;77.0;36.80;36.60;115.50;114.80;2,233,187;2,220,198.5;;654,509.625;2,233,186.8405;;;9.24;0.152;N;Compliant;;261.99;1996614.5
125;2017;SPS-District K-12;K-12 School;Mercer International Middle;1600 Columbian Way S.;Seattle;WA;98108.0;1624049214;2.0;GREATER DUWAMISH;47.56413;-122.31208;1957.0;1.0;1.0;130,862;0;130,862;K-12 School;K-12 School;139,310;;;;;;63.0;55.50;54.20;91.90;90.50;7,730,110;7,548,106;;656,853.3125;2,241,183.50225;54,889.26;5,488,926.17;300.79;2.299;N;Compliant;;261.99;1996614.5
127;2017;SPS-District K-12;K-12 School;Orca K-8 School;5215 46th Ave. S.;Seattle;WA;98118.0;1704900242;2.0;SOUTHEAST;47.55478;-122.27596;1989.0;1.0;3.0;59,955;0;59,955;K-12 School;K-12 School;59,955;;;;;;94.0;29.50;29.30;85.80;85.60;1,767,751.5;1,758,171.25;;460,774.09375;1,572,161.207875;1,955.90;195,589.98;16.89;0.282;N;Compliant;;261.99;1996614.5
130;2017;SPS-District K-12;K-12 School;McClure Middle;1915 1st Ave. W.;Seattle;WA;98119.0;1794501220;7.0;MAGNOLIA / QUEEN ANNE;47.63683;-122.35896;1964.0;1.0;2.0;93,218;0;93,218;K-12 School;K-12 School;93,218;;;;;;89.0;32.90;31.90;66.80;65.80;3,064,196.5;2,976,964.75;;421,881.8125;1,439,460.74425;16,247.36;1,624,735.84;92.24;0.99;N;Compliant;;261.99;1996614.5
131;2017;NonResidential;Other;Lakeview;1208 NE 64th st;Seattle;WA;98115.0;1797500625;4.0;NORTHEAST;47.67524;-122.31534;1941.0;1.0;4.0;56,521;0;56,521;Other;Other;49,000;;;;;;;117.10;117.10;367.70;367.70;5,737,653;5,737,653;;1,681,609.75;5,737,652.467;;;23.74;0.42;N;Compliant;;261.99;1996614.5
132;2017;NonResidential;Other;Roosevelt Square;6401 12th Avenue NE;Seattle;WA;98115.0;1797500715;4.0;NORTHEAST;47.67559;-122.31769;1929.0;1.0;2.0;228,385;100,070;128,315;Other, Parking;Other;129,396;Parking;0;;;;;28.20;27.60;48.80;47.80;3,653,232.75;3,571,587.5;;347,829.3125;1,186,793.61425;24,664.39;2,466,439.06;135.90;0.595;N;Compliant;;261.99;1996614.5
136;2017;NonResidential;Hotel;Holiday Inn Express North Seattle Shoreline;14115 Aurora Ave N;Seattle;WA;98133.0;1926049012;5.0;NORTHWEST;47.73141;-122.3458;2001.0;1.0;4.0;51,390;0;51,390;Hotel, Parking;Hotel;51,390;Parking;0;;;;91.0;69.50;69.10;131.10;129.70;3,571,819.75;3,548,590.5;;419,101;1,429,972.612;21,418.47;2,141,847.07;119.67;2.329;N;Compliant;;261.99;1996614.5
137;2017;SPS-District K-12;K-12 School;Broadview-Thomson K-8;13052 Greenwood Ave. N.;Seattle;WA;98133.0;1926049025;5.0;NORTHWEST;47.72463;-122.35315;1963.0;1.0;2.0;131,013;0;131,013;K-12 School;K-12 School;131,909;;;;;;94.0;32.70;31.00;63.30;61.30;4,313,222.5;4,090,444;;535,538.6875;1,827,258.00175;24,859.64;2,485,964.26;139.59;1.065;Y;Not Compliant;;261.99;1996614.5
138;2017;SPS-District K-12;K-12 School;Ingraham High;1819 N. 135th St.;Seattle;WA;98133.0;1926049321;5.0;NORTHWEST;47.7257;-122.33684;1959.0;1.0;1.0;245,587;0;245,587;K-12 School;K-12 School;249,171;;;;;;95.0;50.60;48.50;84.20;81.70;12,601,269;12,085,780;;1,085,689.75;3,704,373.427;88,968.95;8,896,895.31;487.84;1.986;N;Compliant;;261.99;1996614.5
139;2017;NonResidential;Hotel;7066-Seattle-Northgate;13300 Stone Avenue N;Seattle;WA;98133.0;1926049434;5.0;NORTHWEST;47.72551;-122.3423;2002.0;1.0;3.0;69,138;0;69,138;Hotel;Hotel;70,609;;;;;;80.0;47.80;47.20;104.00;102.00;3,377,110.5;3,330,187.25;;533,003.125;1,818,606.6625;15,585.03;1,558,503.42;90.30;1.306;N;Compliant;;261.99;1996614.5
140;2017;SPS-District K-12;K-12 School;B.F. Day Elementary;3921 Linden Ave. N.;Seattle;WA;98103.0;1931301145;6.0;LAKE UNION;47.65464;-122.34912;1991.0;1.0;3.0;66,588;0;66,588;K-12 School;K-12 School;66,588;;;;;;81.0;33.50;33.00;105.20;103.50;2,231,671.25;2,194,265.75;;654,065.375;2,231,671.0595;;;9.23;0.139;N;Compliant;;261.99;1996614.5
144;2017;NonResidential;Hotel;Alexis Hotel;1007 First Ave.;Seattle;WA;98104.0;1974600035;7.0;DOWNTOWN;47.6048;-122.3368;1904.0;1.0;5.0;190,980;0;190,980;Hotel, Parking;Hotel;190,980;Parking;19,051;;;;99.0;32.60;32.60;81.60;81.60;6,220,623.5;6,220,623.5;;1,269,484.375;4,331,480.6875;18,891.42;1,889,141.99;118.25;0.619;N;Compliant;;261.99;1996614.5
145;2017;Nonresidential COS;Other;Benaroya Hall;200 University Street;Seattle;WA;98111.0;1974700025;7.0;DOWNTOWN;47.60804;-122.3367;1998.0;1.0;6.0;284,100;0;284,100;Other - Entertainment/Public Assembly;Other - Ent;189,750;;;;;;;78.50;77.60;192.80;190.80;14,894,600;14,728,079;4,690,673.5;2,836,110.75;9,676,809.879;5,271.16;527,115.97;317.39;1.117;N;Compliant;;261.99;1996614.5
147;2017;Campus;Hospital;Swedish Ballard;5300 Tallman Ave NW;Seattle;WA;98107.0;2767703875;6.0;BALLARD;47.66737;-122.37956;1954.0;4.0;5.0;285,333;0;285,333;Hospital (General Medical & Surgical), Parking;Hospital (G;302,661;Parking;148,865;;;;18.0;229.10;;465.00;;69,350,008;;;9,522,533;32,490,882.596;368,591.19;36,859,118.75;2,092.01;7.332;N;Compliant;;261.99;1996614.5
148;2017;SPS-District K-12;K-12 School;West Woodland Elementary;5601 4th Ave. N.W.;Seattle;WA;98107.0;2768000375;6.0;Ballard;47.6706;-122.36225;1991.0;1.0;2.0;55,513;0;55,513;K-12 School;K-12 School;61,785;;;;;;96.0;26.20;26.20;82.30;82.30;1,618,890.625;1,619,592.75;;474,469.59375;1,618,890.253875;;;6.70;0.121;N;Compliant;;261.99;1996614.5
163;2017;Nonresidential COS;Other;Fire Station 10/FAC/EOC;105 5th Ave S;Seattle;WA;98104.0;5247801465;2.0;DOWNTOWN;47.60102;-122.32873;2006.0;1.0;4.0;61,156;0;61,156;Fire Station, Office;Fire Statio;42,755;Office;29,219;;;;;131.10;129.60;330.80;327.60;9,434,370;9,327,808;;1,949,725.25;6,652,462.553;27,819.07;2,781,906.84;175.27;2.866;N;Compliant;;261.99;1996614.5
167;2017;NonResidential;Other;Wing Luke Museum;719 South King Street;Seattle;WA;98104.0;5247802715;2.0;DOWNTOWN;47.59809;-122.32283;1910.0;1.0;4.0;72,820;13,820;59,000;Museum;Museum;58,000;;;;;;;40.10;39.50;90.10;88.60;2,327,732.5;2,289,895.5;;389,945.59375;1,330,494.365875;9,972.38;997,237.99;58.47;0.803;N;Compliant;;261.99;1996614.5
168;2017;NonResidential;Hotel;Hampton Inn Seattle Center;700 5th Ave N.;Seattle;WA;98109.0;5458300285;7.0;MAGNOLIA / QUEEN ANNE;47.62614;-122.3467;1996.0;1.0;4.0;162,222;14,200;148,022;Hotel, Parking;Hotel;113,702;Parking;32,692;;;;80.0;70.40;69.70;150.60;148.50;8,001,963;7,927,950.5;;1,222,658.25;4,171,709.949;38,302.53;3,830,252.73;220.68;1.36;N;Compliant;;261.99;1996614.5
169;2017;SPS-District K-12;K-12 School;Franklin High;3013 S. Mt. Baker Blvd.;Seattle;WA;98144.0;5700000455;2.0;SOUTHEAST;47.57589;-122.29365;1990.0;1.0;4.0;289,588;0;289,588;K-12 School;K-12 School;289,558;;;;;;96.0;29.70;28.90;76.10;75.20;8,600,206;8,370,211.5;;1,822,675.625;6,218,969.2325;23,812.36;2,381,235.74;152.20;0.526;N;Compliant;;261.99;1996614.5
170;2017;NonResidential;University;SCCC FINE ARTS BUILDING;801 E PINE ST;SEATTLE;WA;98122.0;6003000470;3.0;EAST;47.61495;-122.32177;1915.0;1.0;3.0;64,820;0;64,820;College/University;College/Uni;64,820;;;;;;;62.50;60.30;136.60;134.20;4,054,425.75;3,908,019;;644,860.875;2,200,265.3055;18,541.60;1,854,160.16;107.58;1.66;N;Compliant;;261.99;1996614.5
172;2017;Campus;University;SSCC MAIN CAMPUS;6000 16th Ave SW;Seattle;WA;98106.0;6171900005;1.0;DELRIDGE;47.547;-122.35307;1970.0;27.0;2.0;529,343;0;529,343;College/University;College/Uni;529,343;;;;;;;74.30;73.20;173.00;171.80;39,335,420;38,726,292;;7,050,875;24,057,585.5;152,778.31;15,277,831.25;910.93;1.721;N;Compliant;;261.99;1996614.5
173;2017;NonResidential;Small- and Mid-Sized Office;Seattle Children's Hospital 70th/Sand Point Way Administrative Offices;6901Sand Point Way NE;Seattle;WA;98115.0;6418100005;4.0;NORTHEAST;47.67836;-122.26442;2002.0;1.0;2.0;96,300;0;96,300;Data Center, Office;Office;92,300;Data Center;4,944;;;;;179.70;178.80;494.60;493.30;17,476,230;17,382,840;;4,172,022;14,234,939.064;32,412.89;3,241,288.87;231.04;2.399;N;Compliant;;261.99;1996614.5
174;2017;Nonresidential COS;Other;CSC Vehicle Maintenance (E);805 S Charles St;Seattle;WA;98134.0;6834700175;2.0;GREATER DUWAMISH;47.59545;-122.32146;1950.0;1.0;1.0;67,356;0;67,356;Repair Services (Vehicle, Shoe, Locksmith, etc);Repair Serv;67,772;;;;;;;103.40;99.90;176.10;172.50;7,010,479;6,773,748.5;;641,715.125;2,189,532.0065;48,209.47;4,820,946.88;265.10;3.936;N;Compliant;;261.99;1996614.5
175;2017;SPS-District K-12;K-12 School;Garfield High;400 23rd Ave.;Seattle;WA;98122.0;6840701230;3.0;CENTRAL;47.60598;-122.30156;2008.0;1.0;3.0;254,523;0;254,523;K-12 School;K-12 School;258,107;;;;;;75.0;54.30;53.10;118.10;116.90;14,018,362;13,703,880;;2,212,148.75;7,547,851.535;64,705.09;6,470,509.38;374.88;1.473;N;Compliant;;261.99;1996614.5
176;2017;SPS-District K-12;K-12 School;Emerson Elementary;9709 60th Ave. S.;"Seatt;e";WA;98118.0;7129302300;2.0;SOUTHEAST;47.51482;-122.25864;2001.0;1.0;3.0;78,804;0;78,804;K-12 School;K-12 School;78,804;;;;;;92.0;35.40;34.60;82.20;81.40;2,786,048.75;2,730,437.5;;497,863.59375;1,698,710.581875;10,873.38;1,087,337.99;64.78;0.822;N;Compliant;;261.99;1996614.5
177;2017;SPS-District K-12;K-12 School;Madrona K-8;1121 33rd Ave.;Seattle;WA;98122.0;7152200350;3.0;CENTRAL;47.61224;-122.29087;2002.0;1.0;3.0;66,994;0;66,994;K-12 School;K-12 School;68,127;;;;;;89.0;38.40;37.50;99.20;98.30;2,614,529;2,555,028.5;;562,263.1875;1,918,441.99575;6,960.87;696,087.01;44.91;0.67;N;Compliant;;261.99;1996614.5
178;2017;SPS-District K-12;K-12 School;Van Asselt Elementary;8311 Beacon Ave S;Seattle;WA;98118.0;7243500230;2.0;GREATER DUWAMISH;47.52915;-122.28904;2000.0;1.0;3.0;98,357;0;98,357;K-12 School;K-12 School;98,357;;;;;;90.0;38.60;37.60;82.10;81.00;3,798,545.75;3,696,395;;572,905.8125;1,954,754.63225;18,437.91;1,843,790.82;106.01;1.078;N;Compliant;;261.99;1996614.5
179;2017;NonResidential;Small- and Mid-Sized Office;Seattle's Union Gospel Mission - Admin;3800 S Othello St;Seattle;WA;98118.0;7378600265;2.0;GREATER DUWAMISH;47.53827;-122.28406;1958.0;1.0;1.0;54,765;0;54,765;Office, Other;Office;25,765;Other;25,000;;;;;93.20;91.00;255.10;250.20;4,733,395;4,617,186;;1,119,159.625;3,818,572.6405;9,148.22;914,821.97;64.38;1.176;N;Compliant;;261.99;1996614.5
180;2017;NonResidential;Other;Hope Place;3802 S Othello St;Seattle;WA;98118.0;7378600265;2.0;GREATER DUWAMISH;47.53722;-122.284;2009.0;1.0;5.0;89,821;0;89,821;Food Service, Office, Other - Lodging/Residential;Other - Lod;46,483;Office;37,938;Food Service;4,579;;;28.40;27.50;31.80;30.70;2,529,056;2,444,487.25;;24,563.900390625;83,812.0281328125;24,452.44;2,445,243.95;130.21;1.45;N;Compliant;;261.99;1996614.5
182;2017;NonResidential;University;Otto Miller Hall;3469 3rd Ave. W;Seattle;WA;98119.0;7443000070;7.0;MAGNOLIA / QUEEN ANNE;47.65147;-122.36122;1980.0;1.0;2.0;52,611;0;52,611;College/University;College/Uni;52,611;;;;;;;84.70;82.80;190.10;188.10;4,456,880.5;4,356,064;;746,006.125;2,545,372.8985;19,115.07;1,911,507.23;112.05;2.13;N;Compliant;;261.99;1996614.5
183;2017;Multifamily LR (1-4);Residence Hall;Emerson Hall;500 W. Emerson;Seattle;WA;98119.0;7443000375;7.0;MAGNOLIA / QUEEN ANNE;47.65068;-122.36331;2001.0;1.0;4.0;139,600;37,500;102,100;Residence Hall/Dormitory;Residence H;135,520;;;;;;89.0;36.70;36.60;75.10;74.80;4,968,569.5;4,956,664.5;;696,396.375;2,376,104.4315;25,924.65;2,592,465.04;147.52;1.057;N;Compliant;;261.99;1996614.5
185;2017;SPS-District K-12;K-12 School;Nathan Hale High;17050 30th Ave. N.E.;Seattle;WA;98125.0;2826049152;5.0;NORTH;47.70763;-122.29453;2011.0;1.0;2.0;236,758;0;236,758;K-12 School, Parking;K-12 School;242,134;Parking;0;;;2,016;91.0;39.00;38.10;83.50;82.50;9,442,413;9,214,896;;1,444,077;4,927,190.724;45,152.21;4,515,221.48;260.19;1.099;N;Compliant;;261.99;1996614.5
187;2017;NonResidential;Other;Youth Services Center;1211 E Alder Street;Seattle;WA;98122.0;2908700085;3.0;CENTRAL;47.60462;-122.31549;1971.0;3.0;6.0;250,981;0;250,981;Courthouse, Other;Other;137,565;Courthouse;78,357;;;;;65.20;63.80;148.20;146.60;14,068,176;13,786,255;5,569,413;2,295,986;7,833,904.232;6,648.57;664,856.98;363.80;1.449;N;Compliant;;261.99;1996614.5
189;2017;SPS-District K-12;K-12 School;Greenwood Elementary;144 N.W. 80th St.;Seattle;WA;98117.0;2919200635;6.0;NORTHWEST;47.68725;-122.35996;2002.0;1.0;3.0;62,526;0;62,526;K-12 School;K-12 School;62,526;;;;;;96.0;35.10;34.40;73.20;72.50;2,191,821.75;2,148,844.75;;319,166.59375;1,088,996.417875;11,028.25;1,102,825.00;63.08;1.009;N;Compliant;;261.99;1996614.5
190;2017;NonResidential;Small- and Mid-Sized Office;Emerald Services;7343 E Marginal Way S;Seattle;WA;98108.0;2924049043;2.0;GREATER DUWAMISH;47.536;-122.31768;2007.0;1.0;3.0;64,015;0;64,015;Non-Refrigerated Warehouse, Office, Other - Services;Office;30,000;Non-Refrigerated Warehouse;15,000;Other - Services;9,015;;42.0;52.50;51.40;134.10;132.90;2,836,478;2,774,755;;598,213.3125;2,041,103.82225;7,953.74;795,374.02;50.69;0.792;N;Compliant;;261.99;1996614.5
194;2017;Campus;Retail Store;Northgate Mall;401 Northgate Way;Seattle;WA;98125.0;2926049025;5.0;NORTH;47.70759;-122.3255;1951.0;1.0;1.0;530,039;0;530,039;Restaurant, Retail Store;Retail Stor;505,103;Restaurant;24,936;;;;98.0;57.90;56.60;123.60;120.70;30,711,020;30,023,472;;4,663,487;15,911,817.644;147,992.00;14,799,200.00;851.81;1.607;N;Compliant;;261.99;1996614.5
195;2017;NonResidential;Other;Seattle-Northgate;10631 8th Ave NE;Seattle;WA;98125.0;2926049409;5.0;NORTH;47.7066;-122.321;1964.0;1.0;3.0;54,224;0;54,224;Other/Specialty Hospital;Other/Speci;47,012;;;;;;;133.30;133.30;281.80;281.80;6,265,807.5;6,267,917;;935,080.5;3,190,494.666;30,753.12;3,075,312.50;176.53;3.256;N;Compliant;;261.99;1996614.5
197;2017;NonResidential;Retail Store;Nordstrom #002 Northgate;401 NE Northgate Way;Seattle;WA;98125.0;2926049528;5.0;NORTH;47.70619;-122.32586;1965.0;1.0;4.0;124,342;0;124,342;Retail Store;Retail Stor;122,000;;;;;;78.0;70.90;70.60;219.80;219.20;8,652,292;8,616,892;;2,486,989;8,485,606.468;1,666.84;166,684.00;43.96;0.354;N;Compliant;;261.99;1996614.5
198;2017;Campus;Hospital;Seattle Children's Hospital Main Campus;4800 Sand Point Way NE;Seattle;WA;98105.0;2982800005;4.0;NORTHEAST;47.66231;-122.28146;1953.0;10.0;10.0;879,000;0;879,000;Hospital (General Medical & Surgical);Hospital (G;897,371;;;;;;13.0;287.50;283.80;560.80;554.20;258,019,328;254,681,152;;32,581,382;111,167,675.384;1,468,516.38;146,851,637.50;8,259.20;9.396;N;Compliant;;261.99;1996614.5
200;2017;NonResidential;Other;Verity Credit Union;11027 Meridian N #102;Seattle;WA;98133.0;3026049024;5.0;NORTHWEST;47.70956;-122.3345;1996.0;1.0;3.0;55,442;0;55,442;Financial Office, Medical Office, Parking;Financial O;28,636;Parking;15,385;Medical Office;8,644;;68.0;96.90;94.20;207.50;204.60;3,613,813.5;3,511,543;;552,771.1875;1,886,055.29175;17,277.58;1,727,757.81;99.56;1.796;N;Compliant;;261.99;1996614.5
205;2017;SPS-District K-12;K-12 School;Ballard High;1418 N.W. 65th St.;Seattle;WA;98117.0;3050700050;6.0;BALLARD;47.67661;-122.37489;1999.0;1.0;2.0;242,795;0;242,795;K-12 School;K-12 School;242,795;;;;;;87.0;37.50;37.10;107.00;106.60;9,096,033;9,005,074;;2,303,197.25;7,858,509.017;12,375.23;1,237,522.85;98.24;0.405;N;Compliant;;261.99;1996614.5
209;2017;NonResidential;Self-Storage Facility;Madison Self Storage;1111 E. Madison;Seattle;WA;98122.0;3225049002;3.0;EAST;47.61233;-122.3171;1910.0;1.0;5.0;84,870;0;84,870;Self-Storage Facility;Self-Storag;85,521;;;;;;;14.60;14.50;30.30;30.10;1,251,958.25;1,238,536.75;;178,677.59375;609,647.949875;6,423.10;642,310.01;36.64;0.432;N;Compliant;;261.99;1996614.5
211;2017;Campus;University;NSCC MAIN CAMPUS;9600 COLLEGE WAY N;SEATTLE;WA;98103.0;3226049021;5.0;NORTHWEST;47.69936;-122.33401;1970.0;11.0;2.0;694,072;111,625;582,447;College/University;College/Uni;653,167;;;;;;;61.20;60.70;174.50;172.90;39,987,776;39,619,168;;10,099,167;34,458,357.804;55,294.15;5,529,414.84;436.23;0.629;N;Compliant;;261.99;1996614.5
212;2017;SPS-District K-12;K-12 School;Aki Kurose Middle;3928 S. Graham St.;Seattle;WA;98118.0;3332501090;2.0;SOUTHEAST;47.54632;-122.28198;1952.0;1.0;2.0;173,185;0;173,185;K-12 School;K-12 School;173,185;;;;;;84.0;45.10;43.40;66.90;65.10;7,807,653;7,512,366.5;;475,535.09375;1,622,525.739875;61,851.27;6,185,126.95;335.20;1.936;N;Compliant;;261.99;1996614.5
214;2017;SPS-District K-12;K-12 School;Boren Building;5950 Delridge Way S.W.;Seattle;WA;98106.0;3438501230;1.0;DELRIDGE;47.54862;-122.36214;1963.0;1.0;1.0;145,341;0;145,341;K-12 School;K-12 School;129,213;;;;;;88.0;44.30;43.60;75.50;74.80;5,725,513.5;5,629,200.5;;525,694.6875;1,793,670.27375;39,318.43;3,931,842.97;216.24;1.488;Y;Not Compliant;;261.99;1996614.5
215;2017;NonResidential;Warehouse;Rainier Bottling Plant;5628 Airport Way South;Seattle;WA;98108.0;3466800065;2.0;GREATER DUWAMISH;47.55152;-122.31869;1904.0;1.0;4.0;114,297;0;114,297;Non-Refrigerated Warehouse;Non-Refrige;114,297;;;;;;59.0;19.40;18.80;38.40;37.40;2,217,277.5;2,154,016.75;;288,201.5;983,343.518;12,339.34;1,233,933.98;69.60;0.609;N;Compliant;;261.99;1996614.5
216;2017;SPS-District K-12;K-12 School;Rainier Beach High;8815 Seward Park Ave S.;Seattle;WA;98118.0;3524049149;2.0;SOUTHEAST;47.52407;-122.26586;1960.0;1.0;2.0;184,125;0;184,125;K-12 School;K-12 School;183,357;;;;;;84.0;53.50;52.20;88.80;87.50;9,800,618;9,570,056;;840,122.625;2,866,498.3965;69,341.19;6,934,118.75;380.13;2.065;N;Compliant;;261.99;1996614.5
217;2017;SPS-District K-12;K-12 School;Whitman Middle;9201 15th Ave. NW.;Seattle;WA;98117.0;3526039131;6.0;BALLARD;47.69675;-122.3776;1959.0;1.0;1.0;160,270;0;160,270;K-12 School;K-12 School;158,606;;;;;;89.0;41.10;40.60;66.60;66.10;6,524,110;6,438,029.5;;521,382.1875;1,778,956.02375;47,451.54;4,745,153.91;259.37;1.618;N;Compliant;;261.99;1996614.5
220;2017;NonResidential;Warehouse;8109;4786 First Ave S;Seattle;WA;98134.0;3573700006;2.0;GREATER DUWAMISH;47.55901;-122.33328;1937.0;1.0;1.0;234,144;0;234,144;Non-Refrigerated Warehouse;Non-Refrige;234,144;;;;;;87.0;32.00;31.20;45.70;44.80;7,500,874.5;7,306,024;;395,566.90625;1,349,674.284125;61,512.00;6,151,200.00;332.27;1.419;N;Compliant;;261.99;1996614.5
223;2017;NonResidential;Retail Store;Westwood Village - Building A;2600 SW Barton St;Seattle;WA;98126.0;3624039009;1.0;DELRIDGE;47.52254;-122.36627;1966.0;1.0;1.0;64,984;0;64,984;Retail Store;Retail Stor;65,425;;;;;;74.0;47.30;46.10;132.60;130.50;3,094,629;3,016,587;;761,319;2,597,620.428;4,970.08;497,008.01;37.14;0.572;N;Compliant;;261.99;1996614.5
224;2017;NonResidential;Retail Store;Westwood Village - Building B;2600 SW Barton St;Seattle;WA;98126.0;3624039009;1.0;DELRIDGE;47.52254;-122.36627;1965.0;1.0;1.0;67,745;0;67,745;Retail Store;Retail Stor;67,782;;;;;;40.0;138.00;137.90;225.90;225.60;9,352,816;9,349,917;;769,777.625;2,626,481.2565;67,263.34;6,726,334.38;368.10;5.434;N;Compliant;;261.99;1996614.5
225;2017;SPS-District K-12;K-12 School;Denny/Sealth Campus;2601 SW Kenyon / 2600 SW Thistle;Seattle;WA;98126.0;3624039032;1.0;DELRIDGE;47.52915;-122.36511;2010.0;1.0;2.0;367,884;0;367,884;K-12 School;K-12 School;367,884;;;;;2,016;95.0;34.90;34.50;80.90;80.50;12,822,132;12,687,513;;2,284,084;7,793,294.608;50,288.37;5,028,837.11;299.32;0.814;N;Compliant;;261.99;1996614.5
226;2017;SPS-District K-12;K-12 School;Roxhill Elementary;9430 30th Ave. S.W.;Seattle;WA;98126.0;3624039057;1.0;DELRIDGE;47.51778;-122.37074;1958.0;1.0;1.0;46,797;0;46,797;K-12 School;K-12 School;46,797;;;;;;74.0;53.90;53.40;93.60;93.10;2,520,889;2,499,488.75;;242,794.296875;828,414.1409375;16,924.75;1,692,475.00;93.31;1.994;N;Compliant;;261.99;1996614.5
227;2017;SPS-District K-12;K-12 School;Washington Middle;2101 S. Jackson;Seattle;WA;98144.0;3646100540;3.0;CENTRAL;47.59796;-122.30415;1963.0;1.0;3.0;136,188;0;136,188;K-12 School;K-12 School;137,084;;;;;;94.0;39.30;38.00;65.00;63.70;5,385,384.5;5,212,222.5;;456,489.90625;1,557,543.560125;38,278.41;3,827,841.02;209.74;1.54;N;Compliant;;261.99;1996614.5
228;2017;NonResidential;Other;Webster Building;3014 NW 67th St.;Seattle;WA;98117.0;3693901110;6.0;BALLARD;47.67767;-122.39631;1973.0;1.0;3.0;56,000;0;56,000;Other;Other;56,000;;;;;;;35.40;34.30;66.20;65.10;1,982,074.375;1,921,330;;228,126.40625;778,367.298125;12,037.07;1,203,707.03;67.15;1.199;N;Compliant;;261.99;1996614.5
229;2017;SPS-District K-12;K-12 School;Martin Luther King Jr. Elementary;6725 45th Ave S;Seattle;WA;98118.0;3812400550;2.0;SOUTHEAST;47.54174;-122.27691;2004.0;1.0;2.0;67,371;0;67,371;K-12 School;K-12 School;67,371;;;;;;91.0;34.50;33.90;81.10;80.40;2,326,197;2,282,365.25;;423,445.09375;1,444,794.659875;8,814.02;881,402.05;52.79;0.784;Y;Not Compliant;;261.99;1996614.5
230;2017;NonResidential;Self-Storage Facility;U-Haul Moving and Storage of West Seattle (701065);6343 35th Ave SW;Seattle;WA;98126.0;3874900040;1.0;SOUTHWEST;47.54508;-122.37737;1969.0;1.0;2.0;52,088;0;52,088;Self-Storage Facility;Self-Storag;52,088;;;;;;;27.00;26.60;50.90;50.20;1,406,600.25;1,384,492;;165,035.296875;563,100.4329375;8,435.00;843,499.51;47.13;0.905;N;Compliant;;261.99;1996614.5
231;2017;SPS-District K-12;K-12 School;Hamilton International Middle;1610 N. 41st St.;Seattle;WA;98103.0;4083301505;4.0;LAKE UNION;47.65708;-122.33803;2010.0;1.0;3.0;127,776;0;127,776;K-12 School;K-12 School;127,776;;;;;;82.0;34.90;34.80;94.70;94.60;4,458,362;4,441,778;;1,040,368;3,549,735.616;9,086.26;908,626.07;62.94;0.493;N;Compliant;;261.99;1996614.5
232;2017;NonResidential;Hotel;Silver Cloud Inn;1150 Fairview Ave N;Seattle;WA;98109.0;4088802955;3.0;LAKE UNION;47.62972;-122.32906;1998.0;1.0;5.0;123,920;30,000;93,920;Hotel, Parking, Swimming Pool;Hotel;123,920;Parking;30,000;Swimming Pool;0;;85.0;73.20;73.20;144.30;144.30;9,070,980;9,072,679;;1,171,926.125;3,998,611.9385;50,723.68;5,072,367.58;285.94;2.307;N;Compliant;;261.99;1996614.5
233;2017;Nonresidential COS;Other;Armory Building;860 Terry Ave N;Seattle;WA;98109.0;4088803210;3.0;LAKE UNION;47.62759;-122.33661;1900.0;1.0;1.0;50,000;0;50,000;Museum;Museum;43,000;;;;;;;181.60;180.00;375.50;370.40;7,807,559;7,739,639;;1,114,673.25;3,803,265.129;40,042.93;4,004,292.97;228.40;4.568;N;Compliant;;261.99;1996614.5
234;2017;Nonresidential COS;Warehouse;SCL Roy Street Warehouse;802 Roy St;Seattle;WA;98109.0;4088803530;7.0;MAGNOLIA / QUEEN ANNE;47.62591;-122.34084;1926.0;1.0;2.0;50,292;0;50,292;Non-Refrigerated Warehouse, Office, Other - Services, Residence Hall/Dormitory;Non-Refrige;42,345;Residence Hall/Dormitory;5,000;Office;4,730;;;6.50;;20.30;;348,190.3125;;;102,048.703125;348,190.1750625;;;1.44;0.029;N;Compliant;;261.99;1996614.5
235;2017;NonResidential;Hotel;311jk-Seattle Downtown/Lake Union CY;925 Westlake Ave North;Seattle;WA;98109.0;4088803586;7.0;MAGNOLIA / QUEEN ANNE;47.62782;-122.34045;1998.0;1.0;7.0;207,656;54,341;153,315;Hotel;Hotel;141,591;;;;;;73.0;84.20;82.00;176.80;171.40;11,927,346;11,616,172;;1,754,233.75;5,985,445.555;59,419.00;5,941,899.61;340.34;1.639;N;Compliant;;261.99;1996614.5
237;2017;SPS-District K-12;K-12 School;Whittier Elementary;1320 NW 75th St.;Seattle;WA;98117.0;4240400005;6.0;BALLARD;47.68359;-122.37308;1999.0;1.0;2.0;67,235;0;67,235;K-12 School;K-12 School;67,235;;;;;;92.0;37.70;37.00;88.90;88.10;2,537,124;2,486,469.75;;464,382.6875;1,584,473.72975;9,526.50;952,650.00;57.15;0.85;N;Compliant;;261.99;1996614.5
238;2017;Nonresidential COS;Small- and Mid-Sized Office;North Service Center;1300 N 97th ST;Seattle;WA;98103.0;4310701070;5.0;NORTHWEST;47.70044;-122.34136;1957.0;1.0;2.0;91,130;0;91,130;Data Center, Distribution Center, Office, Other, Parking;Office;57,968;Distribution Center;32,881;Parking;11,850;;;100.00;99.20;256.90;254.80;9,432,721;9,357,136;;2,007,942.75;6,851,100.663;25,816.20;2,581,620.12;165.45;1.816;N;Compliant;;261.99;1996614.5
239;2017;SPS-District K-12;K-12 School;Gatewood Elementary;4320 SW Myrtle;Seattle;WA;98136.0;4315700020;1.0;SOUTHWEST;47.54025;-122.3885;1991.0;1.0;3.0;58,118;0;58,118;K-12 School;K-12 School;59,014;;;;;;98.0;24.60;24.20;67.20;66.80;1,454,677.375;1,429,926.25;;342,184.40625;1,167,533.194125;2,871.44;287,144.02;20.08;0.346;N;Compliant;;261.99;1996614.5
241;2017;NonResidential;Hotel;Hotel Nexus;2140 N. Northgate Way;Seattle;WA;98133.0;4468400005;5.0;NORTHWEST;47.70916;-122.33216;1968.0;1.0;4.0;64,893;0;64,893;Hotel;Hotel;64,893;;;;;;59.0;112.90;111.10;213.50;207.80;7,323,443;7,207,118.5;;864,322.5;2,949,068.37;43,743.74;4,374,374.22;244.52;3.768;N;Compliant;;261.99;1996614.5
242;2017;SPS-District K-12;K-12 School;Olympic View Elementary;504 N.E. 95th St.;Seattle;WA;98115.0;5100404840;5.0;NORTH;47.69823;-122.32126;1989.0;1.0;2.0;52,792;0;52,792;K-12 School;K-12 School;55,480;;;;;;97.0;25.40;25.30;79.80;79.50;1,409,767.875;1,405,008.75;;413,179.3125;1,409,767.81425;;;5.83;0.11;N;Compliant;;261.99;1996614.5
243;2017;SPS-District K-12;K-12 School;Van Asselt Building - Old;7201 Beacon Ave. S.;Seattle;WA;98108.0;5129000050;2.0;GREATER DUWAMISH;47.53809;-122.29591;1925.0;1.0;1.0;70,762;0;70,762;K-12 School;K-12 School;69,226;;;;;;69.0;63.00;62.00;79.70;78.70;4,360,317.5;4,290,225.5;;132,063.09375;450,599.275875;39,097.18;3,909,717.97;209.51;2.961;Y;Not Compliant;;261.99;1996614.5
244;2017;NonResidential;Small- and Mid-Sized Office;Washington Park Building;76-80 S washington st;seattle;WA;98104.0;5247800030;7.0;DOWNTOWN;47.60105;-122.33518;1900.0;1.0;3.0;44,558;0;44,558;Office, Restaurant, Self-Storage Facility;Office;34,416;Self-Storage Facility;7,672;Restaurant;2,470;;;;;;;;;;370,072.59375;1,262,687.689875;;;5.22;0.117;N;Not Compliant;;261.99;1996614.5
245;2017;NonResidential;Other;CenturyLink;800 Occidental Ave. South;Seattle;WA;98134.0;7666204876;2.0;GREATER DUWAMISH;47.59544;-122.33159;1999.0;1.0;6.0;1,585,960;327,680;1,258,280;Other - Entertainment/Public Assembly, Parking;Other - Ent;1,585,960;Parking;0;;;;;43.40;42.10;117.20;114.70;68,816,432;66,829,032;;15,937,783;54,379,715.596;144,367.14;14,436,714.06;991.71;0.625;N;Compliant;;261.99;1996614.5
247;2017;Nonresidential COS;Distribution Center;SCL SSC Building A;3613 4th Ave S;Seattle;WA;98134.0;7666205660;2.0;GREATER DUWAMISH;47.57199;-122.32811;1924.0;1.0;2.0;179,161;0;179,161;Data Center, Distribution Center, Office, Other;Distributio;117,476;Office;37,321;Other;25,543;;;55.50;54.20;164.30;160.60;10,031,638;9,790,772;;2,686,168.75;9,165,207.775;8,664.29;866,429.00;83.93;0.468;N;Compliant;;261.99;1996614.5
248;2017;Nonresidential COS;Warehouse;SCL SSC Building B;3613 4th Ave S;Seattle;WA;98134.0;7666205660;2.0;GREATER DUWAMISH;47.57199;-122.32811;1965.0;1.0;2.0;50,000;0;50,000;Non-Refrigerated Warehouse, Office, Other, Other - Services;Non-Refrige;40,831;Other - Services;16,735;Office;11,533;;;65.20;63.40;204.60;199.10;4,581,942.5;4,459,359;;1,342,890.25;4,581,941.533;;;18.96;0.379;N;Compliant;;261.99;1996614.5
249;2017;NonResidential;Other;Safeco Field;1250 First Avenue South;Seattle;WA;98134.0;7666206483;2.0;GREATER DUWAMISH;47.59085;-122.33354;1999.0;1.0;3.0;1,172,127;0;1,172,127;Other - Entertainment/Public Assembly;Other - Ent;1,172,127;;;;;;;58.10;58.00;138.60;138.30;68,088,408;67,978,656;;12,762,830;43,546,775.96;245,416.28;24,541,628.12;1,483.56;1.266;N;Compliant;;261.99;1996614.5
250;2017;NonResidential;Hotel;Silver Cloud Hotel - Stadium;1046 1st Ave S;Seattle;WA;98134.0;7666206720;2.0;GREATER DUWAMISH;47.59269;-122.33372;2005.0;1.0;9.0;168,449;14,567;153,882;Food Service, Hotel, Parking;Hotel;135,006;Parking;20,600;Food Service;9,216;;65.0;92.00;90.10;187.50;183.70;13,270,612;12,995,834;;1,837,253.25;6,268,708.089;70,019.03;7,001,903.12;397.81;2.362;N;Compliant;;261.99;1996614.5
257;2017;NonResidential;Warehouse;Harbor Island: Warehouse E - DNRP-SWD;3235 16TH AVE SW;SEATTLE;WA;98134.0;7666703020;1.0;GREATER DUWAMISH;47.57507;-122.35747;1916.0;0.0;4.0;79,600;0;79,600;Non-Refrigerated Warehouse;Non-Refrige;79,600;;;;;;59.0;23.10;23.10;72.50;72.50;1,836,783;1,836,783;;538,330.3125;1,836,783.02625;;;7.60;0.095;N;Compliant;;261.99;1996614.5
260;2017;SPS-District K-12;K-12 School;Lincoln Building;4400 Interlake Ave N;Seattle;WA;98103.0;7821200700;4.0;LAKE UNION;47.65996;-122.33962;1997.0;1.0;4.0;241,066;0;241,066;K-12 School;K-12 School;241,066;;;;;;95.0;22.40;22.20;44.90;44.60;5,407,536;5,350,658;;720,579.125;2,458,615.9745;29,489.20;2,948,919.92;166.79;0.692;Y;Not Compliant;;261.99;1996614.5
261;2017;Campus;Large Office;South Park;1420 S Trenton;Seattle;WA;98108.0;7883608601;1.0;GREATER DUWAMISH;47.52429;-122.31234;1980.0;14.0;2.0;334,368;31,874;302,494;Laboratory, Non-Refrigerated Warehouse, Office, Other - Utility;Office;240,984;Laboratory;72,963;Other - Utility;16,766;;;151.20;151.20;430.40;430.40;50,567,340;50,572,632;;12,735,883;43,454,832.796;71,125.00;7,112,500.00;557.52;1.667;Y;Not Compliant;;261.99;1996614.5
263;2017;NonResidential;Other;Building 1;316 NE Thornton Place;Seattle;WA;98125.0;8632880000;1.0;NORTH;47.70281;-122.32532;2008.0;1.0;6.0;394,712;335,109;59,603;Fast Food Restaurant, Medical Office, Movie Theater, Parking, Retail Store;Parking;335,109;Movie Theater;67,074;Medical Office;13,567;;;103.10;101.30;267.10;262.70;9,122,362;8,964,394;;1,969,765.25;6,720,839.033;24,015.22;2,401,522.07;155.35;0.394;N;Compliant;;261.99;1996614.5
264;2017;NonResidential;Mixed Use Property;TriBeCa;516 1st Ave W;Seattle;WA;98119.0;8681450000;7.0;MAGNOLIA / QUEEN ANNE;47.6239;-122.35756;2002.0;1.0;4.0;110,785;39,179;71,606;Financial Office, Multifamily Housing, Parking, Retail Store, Supermarket/Grocery Store;Multifamily;58,563;Supermarket/Grocery Store;48,520;Parking;29,839;;;98.00;97.20;299.40;297.30;10,853,629;10,771,248;;3,052,469.5;10,415,025.934;4,386.02;438,601.95;66.38;0.599;Y;Not Compliant;;261.99;1996614.5
265;2017;Multifamily MR (5-9);Mid-Rise Multifamily;YWCA Opportunity Place;2024 3rd Avenue;Seattle;WA;98121.0;8729690000;7.0;DOWNTOWN;47.61316;-122.34153;2003.0;1.0;7.0;116,947;;;Multifamily Housing, Office, Other - Lodging/Residential, Retail Store;Multifamily;81,740;Office;27,403;Other - Lodging/Residential;12,851;;;86.20;85.40;188.00;187.10;10,839,175;10,730,137;;1,717,454.5;5,859,954.754;49,792.20;4,979,219.92;288.69;2.469;Y;Not Compliant;;261.99;1996614.5
266;2017;Multifamily LR (1-4);Low-Rise Multifamily;;6500 35TH AVE SW;SEATTLE;WA;;9271000000;1.0;DELRIDGE;47.54448;-122.37603;2007.0;;4.0;52,134;0;52,134;;;;;;;;;;;;;;;;;;;;;0.00;0.0;N;Compliant;;261.99;1996614.5
267;2017;NonResidential;Hotel;Grand Hyatt Seattle;721 Pine St;Seattle;WA;98101.0;6792120000;7.0;DOWNTOWN;47.61275;-122.3333;1999.0;1.0;0.0;934,292;0;934,292;Hotel, Other, Parking, Restaurant, Retail Store;Hotel;495,536;Parking;438,756;Restaurant;49,700;;;119.10;118.50;273.10;271.20;65,718,336;65,388,896;;11,450,062;39,067,611.544;266,507.22;26,650,721.88;1,577.05;1.688;Y;Not Compliant;;261.99;1996614.5
268;2017;Campus;Hospital;Swedish Cherry Hill;500 17th Ave;Seattle;WA;98122.0;7942600331;3.0;CENTRAL;47.60705;-122.30966;1990.0;6.0;5.0;597,519;0;597,519;Hospital (General Medical & Surgical), Parking;Hospital (G;601,615;Parking;48,607;;;;36.0;244.10;242.00;450.50;447.90;146,845,936;145,564,464;;16,387,027;55,912,536.124;909,333.94;90,933,393.75;5,060.79;8.47;N;Compliant;;261.99;1996614.5
273;2017;SPS-District K-12;K-12 School;Highland Park Elementary;1012 S.W. Trenton St.;Seattle;WA;98106.0;7972603210;1.0;DELRIDGE;47.52518;-122.34828;1999.0;1.0;1.0;71,714;0;71,714;K-12 School;K-12 School;71,714;;;;;;90.0;35.80;35.40;94.30;93.80;2,570,735.5;2,542,239.5;;569,352.125;1,942,629.4505;6,281.06;628,106.01;41.40;0.577;N;Compliant;;261.99;1996614.5
274;2017;NonResidential;Self-Storage Facility;27020-Seattle / Stone Way North;3600 Stone Way North;Seattle;WA;98103.0;8033700250;4.0;LAKE UNION;47.65097;-122.34227;1991.0;1.0;3.0;75,397;8,161;67,236;Parking, Self-Storage Facility;Self-Storag;67,236;Parking;8,161;;;;88.0;9.20;9.10;25.10;24.70;621,088.5;611,638.3125;;145,278;495,688.536;1,254.00;125,400.00;8.71;0.116;N;Compliant;;261.99;1996614.5
276;2017;Campus;Hospital;Harborview Medical Center;325 9th Ave.;Seattle;WA;98104.0;8590900220;3.0;EAST;47.60399;-122.32377;2000.0;9.0;8.0;1,926,841;0;1,926,841;Hospital (General Medical & Surgical), Parking;Hospital (G;1,724,189;Parking;378,300;;;;67.0;165.80;164.20;379.20;374.90;285,952,544;283,066,464;123,766,808;46,932,792;160,134,686.304;20,510.28;2,051,028.12;7,351.00;3.815;N;Compliant;;261.99;1996614.5
278;2017;NonResidential;Senior Care Community;ID Village Square 1;802 S. Dearborn St.;Seattle;WA;98104.0;8592900105;2.0;DOWNTOWN;47.59626;-122.3218;1999.0;1.0;5.0;102,796;12,611;90,185;K-12 School, Medical Office, Office, Restaurant, Retail Store, Senior Care Community;Senior Care;55,259;Medical Office;40,091;K-12 School;3,231;;;108.00;108.00;266.20;266.20;11,103,403;11,103,403;;2,202,721;7,515,684.052;35,877.18;3,587,717.97;221.64;2.156;Y;Not Compliant;;261.99;1996614.5
279;2017;SPS-District K-12;K-12 School;West Seattle High;3000 California Ave SW;Seattle;WA;98116.0;8702100050;1.0;SOUTHWEST;47.57678;-122.38459;2002.0;1.0;2.0;208,981;0;208,981;K-12 School;K-12 School;208,981;;;;;;88.0;40.40;39.50;91.90;90.80;8,450,688;8,246,117;;1,448,162.25;4,941,129.597;35,095.58;3,509,557.81;206.83;0.99;N;Compliant;;261.99;1996614.5
280;2017;Multifamily MR (5-9);Mid-Rise Multifamily;Wintonia;1431 Minor Ave;Seattle;WA;98101.0;8725600350;7.0;EAST;47.6136;-122.32785;1909.0;1.0;6.0;51,976;0;51,976;Multifamily Housing;Multifamily;50,350;;;;;;30.0;89.60;88.90;171.20;170.50;4,513,513.5;4,476,967.5;;544,301.875;1,857,157.9975;26,563.55;2,656,354.88;148.76;2.862;N;Compliant;;261.99;1996614.5
281;2017;NonResidential;K-12 School;University HTS Grade School;5031 University Way NE;Seattle;WA;98105.0;8816400900;1.0;NORTHEAST;47.66568;-122.31368;1928.0;1.0;2.0;55,653;0;55,653;K-12 School;K-12 School;55,500;;;;;;93.0;30.70;29.30;32.40;31.00;1,704,375.875;1,626,029.25;;1,553.59997558594;5,300.88311669923;16,990.75;1,699,074.80;90.26;1.622;N;Compliant;;261.99;1996614.5
282;2017;NonResidential;Hotel;Hotel Deca;4507 Brooklyn Ave NE;Seattle;WA;98105.0;8817400055;4.0;NORTHEAST;47.66151;-122.31457;1931.0;1.0;16.0;106,860;0;106,860;Hotel;Hotel;106,860;;;;;;58.0;110.00;108.70;180.40;178.70;11,757,918;11,610,345;;972,089;3,316,767.668;84,411.50;8,441,150.00;462.03;4.324;N;Compliant;;261.99;1996614.5
283;2017;NonResidential;Small- and Mid-Sized Office;;12360 LAKE CITY WAY NE;SEATTLE;WA;;8822900465;5.0;NORTH;47.71895;-122.29475;1972.0;;5.0;50,759;0;50,759;;;;;;;;;;;;;;;;;;;;;0.00;0.0;N;Compliant;;261.99;1996614.5
284;2017;NonResidential;Worship Facility;University Congregational United Church of Christ;4505 16TH AVE NE;Seattle;WA;98105.0;8823902255;4.0;NORTHEAST;47.66182;-122.31113;1952.0;1.0;2.0;56,772;0;56,772;Worship Facility;Worship Fac;56,772;;;;;;36.0;51.60;50.20;98.50;97.00;2,930,340.5;2,847,930.25;;353,025.09375;1,204,521.619875;17,258.19;1,725,818.95;96.64;1.702;N;Compliant;;261.99;1996614.5
285;2017;NonResidential;Worship Facility;University Presbyterian Church;4540 15th Avenue NE;Seattle;WA;98105.0;8823902325;4.0;NORTHEAST;47.6626;-122.31164;1952.0;1.0;3.0;103,000;0;103,000;Worship Facility;Worship Fac;103,000;;;;;;43.0;54.40;52.70;103.80;102.00;5,598,684;5,428,972;;674,438.875;2,301,185.4415;32,974.98;3,297,498.44;184.65;1.793;N;Compliant;;261.99;1996614.5
286;2017;SPS-District K-12;K-12 School;Roosevelt High;1410 N.E. 66th St.;Seattle;WA;98115.0;8826900005;4.0;NORTHEAST;47.67723;-122.31281;2006.0;1.0;3.0;269,297;0;269,297;K-12 School;K-12 School;274,673;;;;;;92.0;37.40;36.70;88.00;87.30;10,274,055;10,077,037;;1,877,631.375;6,406,478.2515;38,675.76;3,867,576.17;231.91;0.861;N;Compliant;;261.99;1996614.5
287;2017;SPS-District K-12;K-12 School;Bryant Elementary;3311 N.E. 60th;Seattle;WA;98115.0;8827900180;4.0;NORTHEAST;47.67184;-122.29221;2001.0;1.0;3.0;75,174;0;75,174;K-12 School;K-12 School;75,174;;;;;;92.0;39.60;38.70;84.00;83.00;2,978,605.25;2,909,350;;446,462.5;1,523,330.05;14,552.75;1,455,275.00;83.59;1.112;N;Compliant;;261.99;1996614.5
289;2017;SPS-District K-12;K-12 School;Frantz Coe Elementary;2424 7th Ave W.;Seattle;WA;98119.0;9270200005;7.0;MAGNOLIA / QUEEN ANNE;47.64052;-122.3656;2003.0;1.0;3.0;75,214;0;75,214;K-12 School;K-12 School;75,214;;;;;;85.0;37.70;37.00;88.00;87.20;2,835,088;2,780,369.5;;510,286.59375;1,741,097.857875;10,939.90;1,093,990.04;65.30;0.868;N;Compliant;;261.99;1996614.5
290;2017;SPS-District K-12;K-12 School;Madison Middle;3429 45th Ave. S.W.;Seattle;WA;98116.0;9278300005;1.0;SOUTHWEST;47.57298;-122.39028;2005.0;1.0;3.0;134,918;0;134,918;K-12 School;K-12 School;134,918;;;;;;96.0;29.20;28.80;74.90;74.50;3,934,628;3,884,541.75;;837,263.6875;2,856,743.70175;10,778.84;1,077,883.98;69.07;0.512;N;Compliant;;261.99;1996614.5
291;2017;SPS-District K-12;K-12 School;Thurgood Marshall Elementary;2401 S. Irving St.;Seattle;WA;98144.0;9344400300;3.0;CENTRAL;47.59096;-122.29985;1991.0;1.0;2.0;64,414;0;64,414;K-12 School;K-12 School;65,310;;;;;;76.0;36.30;36.00;113.90;113.00;2,369,305;2,350,320.25;;694,403.5;2,369,304.742;;;9.80;0.152;N;Compliant;;261.99;1996614.5
292;2017;SPS-District K-12;K-12 School;John Marshall Building;520 N.E. Ravenna Blvd.;Seattle;WA;98115.0;9528103775;6.0;NORTHWEST;47.67725;-122.32232;1927.0;1.0;3.0;92,437;0;92,437;K-12 School;K-12 School;92,437;;;;;;81.0;59.30;58.00;80.10;78.80;5,481,861.5;5,363,015.5;;231,536.40625;790,002.218125;46,918.59;4,691,859.38;252.45;2.731;Y;Not Compliant;;261.99;1996614.5
293;2017;NonResidential;Other;ACT Theatre;700 Union St;Seattle;WA;98101.0;2141290000;7.0;DOWNTOWN;47.61103;-122.33238;1914.0;1.0;7.0;128,766;;;Office, Other, Other - Entertainment/Public Assembly;Other - Ent;109,754;Other;12,876;Office;6,136;;;41.30;41.30;118.40;118.40;5,314,311;5,314,955;;1,355,068.25;4,623,492.869;6,908.18;690,817.77;55.82;0.433;N;Compliant;;261.99;1996614.5
294;2017;NonResidential;Residence Hall;Women's Residence at Seneca;1118 5th Avenue;Seattle;WA;98101.0;2301950000;7.0;DOWNTOWN;47.6079;-122.33266;1913.0;1.0;9.0;107,572;;;Office, Residence Hall/Dormitory, Retail Store;Residence H;63,934;Office;27,143;Retail Store;10,568;;83.0;55.70;55.50;105.60;105.40;5,662,477;5,645,117;3,635,556.25;594,056.375;2,026,920.3515;;;201.66;1.875;N;Compliant;;261.99;1996614.5
295;2017;NonResidential;Other;1122 3rd Ave;1122 3rd Ave;Seattle;CO;98101.0;2302700000;7.0;DOWNTOWN;47.60699;-122.33481;1955.0;1.0;15.0;230,880;;;Other;Other;203,000;;;;;;;300.30;300.20;942.90;942.50;60,957,996;60,930,864;;17,865,764;60,957,986.768;;;252.19;1.092;N;Compliant;;261.99;1996614.5
296;2017;Multifamily LR (1-4);Low-Rise Multifamily;Cooper School Artist's Lofts;4408 Delridge Way SW;Seattle;WA;98106.0;3388120000;1.0;DELRIDGE;47.56379;-122.36301;1917.0;1.0;4.0;56,617;;;Multifamily Housing;Multifamily;56,617;;;;;;21.0;37.80;36.80;87.40;85.30;2,138,344.75;2,084,011.875;;379,176;1,293,748.512;8,445.96;844,596.09;50.21;0.887;N;Compliant;;261.99;1996614.5
297;2017;Multifamily MR (5-9);Mid-Rise Multifamily;LAKE CITY COURT;12730 33RD AVE NE;SEATTLE;WA;98125.0;3993000000;5.0;NORTH;47.72232;-122.29181;2009.0;1.0;6.0;56,745;;;Multifamily Housing;Multifamily;43,673;;;;;;50.0;62.70;61.80;146.40;144.30;2,740,181.5;2,697,865.5;;492,957.59375;1,681,971.309875;10,582.10;1,058,210.06;63.16;1.113;N;Compliant;;261.99;1996614.5
299;2017;Multifamily LR (1-4);Low-Rise Multifamily;Othello Building;3815 S Othello St;Seattle;WA;98118.0;6434000000;2.0;GREATER DUWAMISH;47.53685;-122.28406;2003.0;1.0;4.0;67,920;;;Medical Office, Multifamily Housing, Office, Retail Store;Multifamily;24,600;Medical Office;12,917;Office;4,150;;;60.90;60.30;188.60;186.80;2,678,470;2,652,506;;768,016.875;2,620,473.5775;579.96;57,996.00;13.92;0.205;Y;Not Compliant;;261.99;1996614.5
300;2017;SPS-District K-12;K-12 School;Cleveland STEM High;5511 15th Ave. S.;Seattle;WA;98108.0;7549802085;2.0;GREATER DUWAMISH;47.55237;-122.31391;2007.0;1.0;3.0;204,961;0;204,961;K-12 School;K-12 School;204,961;;;;;;96.0;42.70;42.00;90.10;89.30;8,751,308;8,599,579;;1,300,988.125;4,438,971.4825;43,123.36;4,312,335.94;247.39;1.207;N;Compliant;;261.99;1996614.5
302;2017;NonResidential;Other;Seattle ReadCntr (50/50);Readiness Center - Pier 91;Seattle;WA;98119.0;7666201147;7.0;MAGNOLIA / QUEEN ANNE;47.63965;-122.3783;1973.0;1.0;1.0;76,086;0;76,086;Other;Other;77,810;;;;;;;;;;;;;;;;;;0.00;0.0;N;Not Compliant;;261.99;1996614.5
313;2017;NonResidential;Medical Office;BMR-201 Elliott Avenue LLC;201 Elliott Avenue West;Seattle;WA;98119.0;7666202190;7.0;MAGNOLIA / QUEEN ANNE;47.61972;-122.36033;1927.0;1.0;5.0;190,000;39,000;151,000;Medical Office, Office;Medical Off;146,741;Office;9,805;;;;1.0;178.20;177.20;449.20;448.20;27,902,224;27,744,876;;5,753,307;19,630,283.484;82,719.38;8,271,937.50;520.54;2.74;N;Compliant;;261.99;1996614.5
314;2017;NonResidential;Hotel;Edgewater Seattle;2411 Alaskan Way;Seattle;WA;98121.0;7666202317;7.0;DOWNTOWN;47.6124;-122.35075;1961.0;1.0;4.0;122,309;0;122,309;Hotel;Hotel;122,309;;;;;;14.0;192.70;192.30;309.20;307.80;23,567,584;23,514,882;;1,833,069.75;6,254,433.987;173,131.48;17,313,148.44;945.38;7.729;N;Compliant;;261.99;1996614.5
315;2017;Campus;Other;P66 Bell Harbor International Conference Center & Cruise Terminal.;2225 Alaskan Way;Seattle;WA;98125.0;7666202325;7.0;DOWNTOWN;47.61137;-122.34947;1995.0;4.0;3.0;217,088;0;217,088;Other;Other;217,088;;;;;;;120.50;120.50;269.30;269.30;26,153,150;26,157,350;;4,346,198.5;14,829,229.282;113,239.19;11,323,918.75;662.76;3.053;N;Compliant;;261.99;1996614.5
316;2017;NonResidential;Hotel;MI Seattle Waterfront - 337V2;2100 Alaskan Way;Seattle;WA;98121.0;7666202345;7.0;DOWNTOWN;47.61069;-122.34653;2003.0;1.0;8.0;254,273;38,800;215,473;Hotel;Hotel;277,000;;;;;;35.0;98.40;97.50;202.80;200.30;27,247,592;26,995,946;;3,865,061.75;13,187,590.691;140,600.00;14,060,000.00;801.29;3.151;N;Compliant;;261.99;1996614.5
317;2017;Nonresidential COS;Other;Seattle Aquarium;1421 Alaskan Way;Seattle;WA;98101.0;7666202420;1.0;DOWNTOWN;47.60729;-122.34211;1980.0;1.0;2.0;53,365;0;53,365;Other - Entertainment/Public Assembly;Other - Ent;69,400;;;;;;;235.60;234.40;608.20;606.90;16,353,612;16,265,111;;3,510,927;11,979,282.924;43,743.27;4,374,326.95;281.88;5.282;N;Compliant;;261.99;1996614.5
318;2017;NonResidential;Mixed Use Property;Pier 54;1001 Alaskan Way;Seattle;WA;98104.0;7666202495;7.0;DOWNTOWN;47.6041;-122.33958;1900.0;1.0;1.0;62,900;0;62,900;Other, Restaurant, Retail Store;Restaurant;32,494;Other;29,793;Retail Store;3,462;;;160.60;160.60;275.60;275.70;10,557,387;10,560,903;;986,552.125;3,366,115.8505;71,912.71;7,191,271.09;395.85;6.293;N;Compliant;;261.99;1996614.5
319;2017;NonResidential;Small- and Mid-Sized Office;Daily Journal Building;83 Columbia St.;Seattle;WA;98104.0;7666202580;7.0;DOWNTOWN;47.60271;-122.33557;1914.0;1.0;4.0;56,500;0;56,500;Office, Retail Store;Office;33,000;Retail Store;7,000;;;;97.0;41.50;40.40;92.80;91.50;1,658,119.875;1,614,834.25;770,718.5;260,082.40625;887,401.170125;;;44.64;0.79;N;Compliant;;261.99;1996614.5
320;2017;NonResidential;Warehouse;(ID320) BMW SEATTLE - SERVICE CENTER;900 MAYNARD AVE S;SEATTLE;WA;98134.0;7666202725;2.0;GREATER DUWAMISH;47.59486;-122.32455;2008.0;1.0;4.0;203,504;159,372;44,132;Non-Refrigerated Warehouse, Other - Services;Non-Refrige;159,372;Other - Services;44,132;;;;75.0;19.20;19.00;60.10;59.60;3,897,159.25;3,861,659.75;;1,142,191.875;3,897,158.6775;;;16.12;0.079;N;Compliant;;261.99;1996614.5
322;2017;NonResidential;Large Office;Cox Media Group Seattle KIRO TV;2801 3rd Ave;Seattle;WA;98121.0;0656000005;7.0;DOWNTOWN;47.61757;-122.35122;1968.0;1.0;3.0;100,734;26,731;74,003;Office, Parking;Office;100,734;Parking;26,731;;;;39.0;100.50;99.40;315.50;312.10;10,122,709;10,012,128;;2,966,796;10,122,707.952;;;41.88;0.416;Y;Not Compliant;;261.99;1996614.5
323;2017;NonResidential;Small- and Mid-Sized Office;200 Cedar Street Building;200 Cedar Street;Seattle;WA;98121.0;0656000045;7.0;DOWNTOWN;47.61703;-122.35012;1981.0;1.0;4.0;77,662;18,504;59,158;Office, Parking;Office;62,108;Parking;17,570;;;;61.0;80.10;77.50;223.80;217.30;4,972,912.5;4,813,714.5;;1,216,865.75;4,151,945.939;8,209.66;820,966.02;60.78;0.783;N;Compliant;;261.99;1996614.5
324;2017;NonResidential;Large Office;Fourth and Battery;2401 Fourth Avenue;Seattle;WA;98121.0;0656000480;7.0;DOWNTOWN;47.61619;-122.34599;1978.0;1.0;12.0;234,000;21,790;212,210;Financial Office, Laboratory, Office, Parking;Office;173,786;Laboratory;29,865;Parking;25,373;;42.0;87.90;87.50;270.20;269.80;18,348,744;18,269,334;;5,206,014.5;17,762,921.474;5,858.20;585,819.68;104.60;0.447;N;Compliant;;261.99;1996614.5
325;2017;NonResidential;Other;WESTLAKE MALL RETAIL PORTION;400 Pine St;Seattle;WA;98101.0;9301500000;7.0;DOWNTOWN;47.61192;-122.33717;1989.0;1.0;4.0;111,077;0;111,077;Enclosed Mall;Enclosed Ma;111,077;;;;;;;117.80;117.10;312.10;309.70;13,088,010;13,005,117;;2,934,106.75;10,011,172.231;30,768.37;3,076,836.91;204.83;1.844;N;Compliant;;261.99;1996614.5
326;2017;NonResidential;Large Office;Westlake Tower;1601 5th Avenue;Seattle;WA;98101.0;9301500000;7.0;DOWNTOWN;47.61192;-122.33717;1989.0;1.0;25.0;516,342;127,192;389,150;Office, Parking;Office;384,448.90625;Parking;127,192;;;20,182,012;79.0;63.60;63.60;199.60;199.60;24,440,992;24,440,992;;7,163,244;24,440,988.528;;;101.12;0.196;N;Compliant;;261.99;1996614.5
327;2017;NonResidential;Retail Store;Nordstrom #001 Downtown Seattle;500 Pine Street;Seattle;WA;98101.0;0659000070;7.0;DOWNTOWN;47.61229;-122.33629;1925.0;1.0;10.0;693,450;0;693,450;Office, Retail Store;Retail Stor;361,107;Office;332,343;;;;94.0;55.80;54.50;167.10;163.00;38,686,632;37,797,356;83,081.3984375;10,547,057;35,986,558.484;26,169.91;2,616,990.62;292.29;0.421;N;Compliant;;261.99;1996614.5
328;2017;NonResidential;Large Office;1600 Seventh;1600 7th Ave;Seattle;WA;98191.0;0659000165;7.0;DOWNTOWN;47.61316;-122.3343;1976.0;1.0;33.0;791,396;0;791,396;Lifestyle Center, Office, Other, Parking, Restaurant;Office;590,091;Parking;77,625;Lifestyle Center;15,464;20,172,015;90.0;68.00;67.20;211.70;209.20;42,185,140;41,698,228;;12,211,516;41,665,692.592;5,194.40;519,439.79;199.96;0.253;N;Compliant;;261.99;1996614.5
329;2017;NonResidential;Large Office;1700 Seventh Ave;1700 Seventh;Seattle;WA;98101.0;0659000235;7.0;DOWNTOWN;47.61399;-122.33523;2000.0;1.0;23.0;747,747;205,076;542,671;Office, Parking, Restaurant;Office;542,461;Parking;219,045;Restaurant;9,337;2,017,201,620,152,014,201,320,122,011,201,020,092,008;92.0;54.80;54.40;161.00;159.80;30,229,138;30,027,230;;8,004,234;27,310,446.408;29,186.87;2,918,686.91;268.00;0.358;N;Compliant;;261.99;1996614.5
330;2017;NonResidential;Small- and Mid-Sized Office;Lloyd Building;603 Stewart Street;Seattle;WA;98101.0;0659000350;7.0;DOWNTOWN;47.61356;-122.33665;1926.0;1.0;10.0;63,409;7,757;55,652;Office, Retail Store;Office;45,260;Retail Store;6,187;;;;91.0;67.80;67.00;133.00;132.00;3,488,812;3,446,921.75;2,123,093;400,269.3125;1,365,718.89425;;;118.52;1.869;N;Compliant;;261.99;1996614.5
331;2017;NonResidential;Large Office;The Tower Building;1809 7th Ave;Seattle;WA;98101.0;0659000365;7.0;DOWNTOWN;47.61375;-122.33566;1930.0;1.0;17.0;204,790;30,000;174,790;Office, Other - Recreation, Parking, Retail Store;Office;142,034;Other - Recreation;17,070;Retail Store;14,666;201,020,092,007;91.0;48.10;46.80;129.50;128.10;8,360,560;8,138,434;;1,924,388;6,566,011.856;17,945.47;1,794,547.07;122.47;0.598;N;Compliant;;261.99;1996614.5
332;2017;NonResidential;Small- and Mid-Sized Office;Times Square Building;414 Olive Street;Seattle;WA;98101.0;0659000385;7.0;DOWNTOWN;47.61256;-122.33808;1916.0;1.0;5.0;73,399;0;73,399;Office, Retail Store;Office;51,557;Retail Store;9,976;;;;63.0;61.40;59.50;192.80;187.00;3,777,452;3,663,755;;1,107,107.75;3,777,451.643;;;15.63;0.213;N;Compliant;;261.99;1996614.5
333;2017;NonResidential;Large Office;Plaza 600;600 Stewart Street;Seattle;WA;98101.0;0659000555;7.0;DOWNTOWN;47.61402;-122.33712;1969.0;1.0;20.0;265,851;32,334;233,517;Office, Parking;Office;226,454;Parking;29,214;;;2,018,201,720,102,007;90.0;69.50;68.20;151.00;148.20;15,744,656;15,448,670;7,866,379.5;2,308,990.5;7,878,275.586;;;450.78;1.696;N;Compliant;;261.99;1996614.5
334;2017;NonResidential;Large Office;West 8th;2001 - 8th Avenue;Seattle;WA;98121.0;0659000750;7.0;DOWNTOWN;47.61578;-122.33726;2009.0;1.0;25.0;758,043;228,668;529,375;Office, Parking;Office;582,725;Parking;191,082;;;2,018,201,720,162,015;98.0;39.90;39.90;122.60;122.60;23,278,062;23,277,718;;6,587,607.5;22,476,916.79;8,011.43;801,142.87;135.54;0.179;N;Compliant;;261.99;1996614.5
335;2017;NonResidential;Large Office;Denny Building;2200 Sixth Avenue;Seattle;WA;98121.0;0660000080;7.0;DOWNTOWN;47.61641;-122.34112;1968.0;1.0;12.0;206,000;0;206,000;Office, Parking;Office;161,000;Parking;51,250;;;;92.0;57.00;54.90;141.60;137.30;9,176,736;8,843,904;3,109,067;1,778,331.75;6,067,667.931;;;190.38;0.924;N;Compliant;;261.99;1996614.5
336;2017;NonResidential;Large Office;1918 Eighth Avenue;1918 Eighth Avenue;Seattle;WA;98101.0;0660000650;7.0;DOWNTOWN;47.61555;-122.33582;2009.0;1.0;36.0;824,887;154,972;669,915;Office, Parking;Office;743,836.8125;Parking;161,119;;;20,172,015;92.0;55.80;54.60;175.00;171.50;41,495,232;40,632,836;;12,143,042;41,432,059.304;;;171.41;0.208;N;Compliant;;261.99;1996614.5
337;2017;NonResidential;Large Office;1800 Ninth;1800 9th Avenue;Seattle;WA;98101.0;0660001135;7.0;DOWNTOWN;47.61516;-122.33303;1990.0;1.0;16.0;480,840;141,600;339,240;Fitness Center/Health Club/Gym, Office, Parking, Restaurant;Office;311,736;Parking;123,356;Fitness Center/Health Club/Gym;18,239;20,182,017;94.0;54.10;53.10;169.20;166.00;18,362,028;18,020,342;;5,344,534;18,235,550.008;1,264.77;126,476.78;82.16;0.171;N;Compliant;;261.99;1996614.5
338;2017;NonResidential;Other;Jack R. McDonald Building;1900 9th Ave.;Seattle;WA;98101.0;0660001215;7.0;DOWNTOWN;47.61598;-122.33448;2004.0;1.0;11.0;299,070;68,432;230,638;Other;Other;250,000;;;;;;;268.70;266.30;543.40;540.70;67,186,504;66,586,948;;9,158,150;31,247,607.8;359,388.94;35,938,893.75;2,037.99;6.814;N;Compliant;;261.99;1996614.5
410;2017;NonResidential;Hotel;Motif Seattle;1414 4th Ave;Seatlle;WA;98101.0;1975700255;7.0;DOWNTOWN;47.60996;-122.33572;1973.0;0.0;19.0;332,067;59,280;272,787;Hotel;Hotel;332,067;;;;;;29.0;90.00;90.00;193.90;193.90;29,874,376;29,874,376;11,333,371;4,387,546;14,970,306.952;35,706.98;3,570,697.66;854.07;2.572;N;Compliant;;261.99;1996614.5
339;2017;NonResidential;Small- and Mid-Sized Office;Broderick Building;615 2nd Avenue;Seattle;WA;98104.0;0939000130;7.0;DOWNTOWN;47.60266;-122.33332;1900.0;1.0;7.0;89,550;0;89,550;Office, Retail Store, Social/Meeting Hall;Office;64,712;Retail Store;10,058;Social/Meeting Hall;7,030;;81.0;53.30;52.10;157.90;154.70;4,357,023.5;4,259,766.5;393,122.3125;1,161,752.875;3,963,900.8095;;;37.30;0.417;N;Compliant;;261.99;1996614.5
340;2017;NonResidential;Small- and Mid-Sized Office;The Pioneer Building;600 First Ave;Seattle;WA;98104.0;0939000150;7.0;DOWNTOWN;47.60219;-122.33347;1900.0;1.0;6.0;89,355;0;89,355;Office, Retail Store;Office;82,355;Retail Store;7,000;;;;69.0;46.10;46.10;143.80;143.80;4,122,530;4,121,564.75;;1,194,639.25;4,076,109.121;464.20;46,420.00;19.33;0.216;N;Compliant;;261.99;1996614.5
341;2017;NonResidential;Large Office;Dexter Horton Building;710 2nd Avenue;Seattle;WA;98104.0;0939000260;7.0;DOWNTOWN;47.6036;-122.33288;1922.0;1.0;15.0;388,934;0;388,934;Office;Office;388,934;;;;;201,820,152,014,201,220,112,009;97.0;34.20;33.80;100.90;100.40;13,320,737;13,164,025;1,341,682.25;3,510,859.5;11,979,052.614;;;120.88;0.311;N;Compliant;;261.99;1996614.5
342;2017;NonResidential;Large Office;Seattle Exchange Building;821 2nd ave;Seattle;WA;98104.0;0939000335;7.0;DOWNTOWN;47.60403;-122.33497;1929.0;1.0;22.0;384,302;0;384,302;Office, Other;Office;348,969;Food Service;1,437;Convenience Store without Gas Station;644;201,220,092,008;97.0;33.60;32.60;105.60;102.40;11,800,704;11,444,584;;3,458,588;11,800,702.256;;;48.82;0.127;N;Compliant;;261.99;1996614.5
343;2017;NonResidential;Large Office;Norton Building;801 2nd Ave Suite 1300;Seattle;WA;98104.0;0939000355;7.0;DOWNTOWN;47.6037;-122.33447;1958.0;1.0;17.0;378,525;84,600;293,925;Office, Parking;Office;245,505.203125;Parking;83,311;;;;72.0;104.50;102.30;234.40;228.70;25,643,976;25,117,432;11,859,103;4,040,114.75;13,784,871.527;;;687.47;1.816;N;Compliant;;261.99;1996614.5
345;2017;NonResidential;Large Office;999 Third Avenue;999 3rd Avenue, Suite 1550;Seattle;WA;98104.0;0939000435;7.0;DOWNTOWN;47.60505;-122.33427;1983.0;1.0;47.0;1,323,055;0;1,323,055;Office, Parking;Office;1,088,855;Parking;272,682;;;2,018;94.0;43.10;42.10;135.00;132.00;46,911,160;45,864,152;;13,704,513;46,759,798.356;1,513.57;151,357.45;201.49;0.152;N;Compliant;;261.99;1996614.5
346;2017;NonResidential;Large Office;1000 Second Avenue;1000 Second Avenue;Seattle;WA;98104.0;0939000475;7.0;DOWNTOWN;47.60567;-122.33511;1986.0;1.0;41.0;589,921;129,432;460,489;Office, Parking, Pre-school/Daycare;Office;470,416;Parking;107,667;Pre-school/Daycare;10,290;20,162,015;86.0;50.40;48.70;158.30;152.90;24,233,582;23,407,882;;7,102,456;24,233,579.872;;;100.26;0.17;N;Compliant;;261.99;1996614.5
347;2017;NonResidential;Small- and Mid-Sized Office;1015 Second Avenue;1015 Second Avenue;Seattle;WA;98104.0;0939000520;7.0;DOWNTOWN;47.60542;-122.33588;1950.0;1.0;6.0;91,091;1,392;89,699;Office, Parking;Office;89,699;Parking;1,392;;;;;15.10;15.00;41.50;41.30;1,351,414.25;1,343,956.375;270,981.8125;316,656.59375;1,080,432.297875;;;18.88;0.207;N;Compliant;;261.99;1996614.5
348;2017;NonResidential;Large Office;1101 Second Avenue (HOB);1101 2nd Avenue;Seattle;WA;98101.0;0942000025;7.0;DOWNTOWN;47.60581;-122.33664;1968.0;1.0;8.0;157,941;62,993;94,948;Office, Parking;Office;84,838;Parking;15,401;;;2,016;81.0;45.10;45.10;141.70;141.70;3,828,622;3,828,622;;1,122,104.75;3,828,621.407;;;15.84;0.1;N;Compliant;;261.99;1996614.5
349;2017;NonResidential;Large Office;2nd and Seneca;1191 2nd Avenue;Seattle;WA;98101.0;0942000030;7.0;DOWNTOWN;47.60614;-122.33674;1991.0;1.0;29.0;635,303;197,231;438,072;Office, Parking;Office;522,667;Parking;194,435;;;2,017,201,620,152,014,201,320,112,010,200,920,072,000;97.0;31.10;31.00;96.70;96.60;16,237,433;16,217,978;241,307.40625;4,688,195.5;15,996,123.046;;;79.01;0.124;N;Compliant;;261.99;1996614.5
350;2017;NonResidential;Large Office;Second And Spring Building;1100 Second Avenue;Seattle;WA;98101.0;0942000045;7.0;DOWNTOWN;47.60642;-122.33581;1958.0;1.0;6.0;172,842;25,920;146,922;Data Center, Office, Parking;Office;99,890;Data Center;39,336;Parking;25,000;;;293.20;292.60;891.40;890.80;40,817,112;40,740,812;;11,392,552;38,871,387.424;19,457.21;1,945,721.09;264.15;1.528;Y;Not Compliant;;261.99;1996614.5
351;2017;NonResidential;Large Office;1111 Third Avenue;1111 3rd Ave Suite 310;Seattle;WA;98101.0;0942000050;7.0;DOWNTOWN;47.60655;-122.33533;1980.0;1.0;34.0;776,762;162,604;614,158;Office, Parking;Office;606,050;Parking;154,947;;;2,018,201,620,092,008;87.0;54.90;54.20;171.10;168.90;33,266,582;32,835,230;;9,643,196;32,902,584.752;3,639.94;363,993.99;155.45;0.2;N;Compliant;;261.99;1996614.5
352;2017;NonResidential;Large Office;Abraham Lincoln Building (Wallysons Inc);1110 Third Avenue;Seattle;WA;98101.0;0942000140;7.0;DOWNTOWN;47.60671;-122.33456;1972.0;1.0;14.0;186,768;23,775;162,993;Data Center, Office, Parking;Office;182,540;Parking;33,671;Data Center;240;2,018,201,620,142,012;95.0;57.10;56.50;148.70;147.80;10,429,615;10,318,177;2,878,771.5;2,213,025.25;7,550,842.153;;;184.28;0.987;N;Compliant;;261.99;1996614.5
353;2017;NonResidential;Large Office;Safeco Plaza;1001 Fourth Avenue;Seattle;WA;98154.0;0942000300;7.0;DOWNTOWN;47.60615;-122.33388;1969.0;1.0;49.0;1,123,435;368,980;754,455;Financial Office, Food Sales, Office, Other, Parking;Office;808,980;Parking;232,248;Other;30,329;2,018,201,720,162,015,201,420,122,008;84.0;60.40;59.20;168.20;165.50;51,704,948;50,716,536;;12,593,689;42,969,666.868;87,352.76;8,735,275.78;641.70;0.571;N;Compliant;;261.99;1996614.5
354;2017;NonResidential;Large Office;Fourth & Madison;925 Fourth Avenue;Seattle;WA;98104.0;0942000345;7.0;DOWNTOWN;47.60549;-122.33319;2002.0;1.0;37.0;1,052,469;164,420;888,049;Convenience Store without Gas Station, Data Center, Financial Office, Fitness Center/Health Club/Gym, Office, Other, Parking, Personal Services (Health/Beauty, Dry Cleaning, etc), Restaurant;Office;765,977.3125;Parking;185,581;Financial Office;103,478;201,820,172,016,201,520,142,013,201,220,112,010,200,920,082,007,200,620,052,004;93.0;46.50;45.90;146.00;144.20;41,397,344;40,890,072;;12,132,867;41,397,342.204;;;171.27;0.163;N;Compliant;;261.99;1996614.5
355;2017;NonResidential;Large Office;901 Fifth Avenue;901 Fifth Avenue;Seattle;WA;98164.0;0942000365;7.0;DOWNTOWN;47.60616;-122.33165;1973.0;1.0;42.0;617,684;171,500;446,184;Financial Office, Office, Parking, Retail Store;Office;581,558;Parking;189,600;Retail Store;18,026;2,018,201,520,142,013;90.0;62.80;62.10;192.00;190.00;37,655,032;37,214,032;1,620,345.75;10,561,161;36,034,681.332;;;235.22;0.381;N;Compliant;;261.99;1996614.5
356;2017;NonResidential;Large Office;The Central Building;810 Third Avenue;Seattle;WA;98104.0;0942000550;7.0;DOWNTOWN;47.60471;-122.33261;1907.0;1.0;8.0;201,480;0;201,480;Non-Refrigerated Warehouse, Office, Retail Store;Office;161,762;Retail Store;29,094;Non-Refrigerated Warehouse;10,624;;83.0;56.30;55.10;156.20;152.90;11,344,803;11,106,079;2,141,673.75;2,697,282.75;9,203,128.743;;;151.93;0.754;N;Compliant;;261.99;1996614.5
357;2017;Nonresidential COS;Large Office;Seattle Municipal Tower;700 Fifth Avenue;Seattle;WA;98104.0;0942000720;3.0;DOWNTOWN;47.60501;-122.32988;1990.0;1.0;63.0;1,354,987;159,600;1,195,387;Office, Parking;Office;1,222,878;Parking;275,949;;;20,172,014,201,320,112,010,200,920,082,007;96.0;41.00;41.00;128.70;128.70;50,145,112;50,145,112;;14,681,289;50,092,558.068;525.51;52,550.99;210.03;0.155;N;Compliant;;261.99;1996614.5
358;2017;Nonresidential COS;Large Office;Justice Center;610 5th Ave;Seattle;WA;98104.0;0942000750;3.0;DOWNTOWN;47.60421;-122.32919;2001.0;1.0;14.0;310,490;0;310,490;Office, Other;Office;269,884;Other;28,394;Data Center;600;;78.0;72.50;71.80;182.80;182.00;21,618,256;21,404,186;;4,464,840.5;15,234,035.786;63,842.18;6,384,217.97;402.09;1.295;N;Compliant;;261.99;1996614.5
359;2017;Nonresidential COS;Large Office;City Hall;600 4th Ave;Seattle;WA;98104.0;0942000810;7.0;DOWNTOWN;47.60377;-122.32971;2003.0;1.0;8.0;199,530;30,660;168,870;Office, Parking;Office;184,042;Parking;17,774;Other;17,480;;66.0;79.30;78.00;190.80;189.50;14,587,453;14,355,251;;2,776,945.25;9,474,937.193;51,125.14;5,112,514.06;310.72;1.557;N;Compliant;;261.99;1996614.5
360;2017;NonResidential;Large Office;Chinook Building;401 Fifth Ave.;Seattle;WA;98104.0;0942001105;7.0;DOWNTOWN;47.60249;-122.32854;2006.0;1.0;13.0;372,242;52,703;319,539;Bank Branch, Office, Other - Restaurant/Bar, Parking, Pre-school/Daycare;Office;276,506;Parking;55,153;Pre-school/Daycare;5,638;;98.0;50.40;49.80;137.50;136.10;14,319,421;14,156,056;;3,371,842;11,504,724.904;28,146.95;2,814,694.73;197.08;0.529;N;Compliant;;261.99;1996614.5
361;2017;NonResidential;Large Office;Yesler Building;400 YESLER WAY;Seattle;WA;98104.0;0942001150;7.0;DOWNTOWN;47.60193;-122.32812;1909.0;1.0;7.0;114,395;8,296;106,099;Office;Office;96,582;;;;;;99.0;30.00;29.20;65.60;64.80;2,894,556.75;2,819,042.25;;462,132.3125;1,576,795.45025;13,177.61;1,317,761.04;76.51;0.669;N;Compliant;;261.99;1996614.5
363;2017;NonResidential;Retail Store;University Book Store;4326 University Way NE;Seattle;WA;98105.0;1142000075;4.0;NORTHEAST;47.66024;-122.31278;1978.0;1.0;2.0;89,200;0;89,200;Retail Store;Retail Stor;89,200;;;;;;82.0;79.20;77.10;216.70;213.40;7,066,949;6,873,138.5;;1,670,194.25;5,698,702.781;13,682.46;1,368,246.00;96.24;1.079;N;Compliant;;261.99;1996614.5
364;2017;NonResidential;Large Office;UW Tower Bldg Complex;4333 Brooklyn Ave;Seattle;WA;98195.0;1142000280;4.0;NORTHEAST;47.66072;-122.31466;1971.0;1.0;23.0;474,546;0;474,546;Office;Office;474,546;;;;;;73.0;65.10;63.90;204.30;200.70;30,870,882;30,325,512;;9,047,737;30,870,878.644;;;127.72;0.269;N;Compliant;;261.99;1996614.5
365;2017;NonResidential;Other;UW Tower Data Center;4333 BROOKLYN AVE NE;SEATTLE;WA;98185.0;1142000290;4.0;NORTHEAST;47.6606;-122.31512;1969.0;1.0;5.0;36,000;0;36,000;Data Center;Data Center;36,000;;;;;20,172,016,201,520,142,013;98.0;924.40;924.40;2,902.50;2,902.50;33,276,844;33,276,844;;9,752,884;33,276,840.208;;;137.67;3.824;N;Compliant;;261.99;1996614.5
366;2017;NonResidential;Small- and Mid-Sized Office;University District Office Buiding;1107 NE 45th St;"Seatt;e";WA;98105.0;1142000500;4.0;NORTHEAST;47.661;-122.31626;1961.0;0.0;5.0;99,005;0;99,005;Office;Office;79,555;;;;;;77.0;52.20;51.90;128.20;127.70;4,154,184.5;4,124,997;;818,212.3125;2,791,740.41025;13,624.44;1,362,443.95;83.91;0.848;N;Compliant;;261.99;1996614.5
367;2017;NonResidential;Large Office;4311 Roosevelt;4311 11th Avenue NE;Seattle;WA;98105.0;1142000530;4.0;NORTHEAST;47.66065;-122.31689;2002.0;1.0;6.0;135,051;44,248;90,803;Office, Parking;Office;95,943;Parking;42,500;;;20,182,017,201,620,152,014,201,320,112,008;91.0;44.10;44.10;138.60;138.60;4,235,464.5;4,235,464.5;;1,241,343.5;4,235,464.022;0.00;0.00;17.52;0.13;N;Compliant;;261.99;1996614.5
368;2017;NonResidential;Large Office;4300 Roosevelt;4300 Roosevelt Way NE;Seattle;WA;98105.0;1142000550;4.0;NORTHEAST;47.65999;-122.31741;2002.0;1.0;5.0;220,649;82,720;137,929;Office, Parking;Office;145,754;Parking;90,000;;;2,018,201,720,162,015,201,420,132,008;94.0;46.60;46.60;146.30;146.30;6,792,176.5;6,792,176.5;;1,990,672.75;6,792,175.423;0.00;0.00;28.10;0.127;N;Compliant;;261.99;1996614.5
369;2017;NonResidential;Self-Storage Facility;Seattle Vault Self Storage;1800 Terry Ave.;Seattle;WA;98101.0;0660001580;7.0;DOWNTOWN;47.61591;-122.33238;1964.0;1.0;5.0;93,660;0;93,660;Self-Storage Facility;Self-Storag;93,660;;;;;;;8.20;8.20;25.70;25.70;767,459.1875;767,459.1875;;224,929.40625;767,459.134125;;;3.18;0.034;N;Compliant;;261.99;1996614.5
370;2017;NonResidential;Large Office;Metropolitan Park West;1100 Olive Way;Seattle;WA;98101.0;0660002054;7.0;DOWNTOWN;47.61597;-122.33086;1980.0;1.0;18.0;413,715;64,660;349,055;Office, Parking;Office;348,270;Parking;69,634;;;2,018,201,720,162,015,201,320,122,010;85.0;62.40;62.40;195.40;195.40;21,735,864;21,735,864;;6,342,475.5;21,640,526.406;953.35;95,335.25;94.59;0.229;N;Compliant;;261.99;1996614.5
371;2017;NonResidential;Mixed Use Property;METROPOLITAN PARK NORTH (ID371);1220 HOWELL ST;SEATTLE;WA;98101.0;0660002381;7.0;DOWNTOWN;47.6177;-122.3306;2000.0;1.0;11.0;380,312;195,621;184,691;Fitness Center/Health Club/Gym, Office, Parking;Parking;182,820;Office;149,259;Fitness Center/Health Club/Gym;39,024;2,018,201,720,152,010;86.0;59.40;59.30;185.10;185.00;11,175,030;11,172,607;;3,240,585;11,056,876.02;1,181.53;118,153.00;52.02;0.137;N;Compliant;;261.99;1996614.5
372;2017;NonResidential;Large Office;Metropolitan Park East;1730 Minor Avenue;Seattle;WA;98101.0;0660002410;7.0;DOWNTOWN;47.61695;-122.32965;1988.0;1.0;20.0;497,513;118,744;378,769;Office, Parking;Office;367,623;Parking;114,510;;;2,015,201,320,122,010;79.0;57.80;57.80;179.90;179.90;21,235,516;21,235,516;;6,147,919;20,976,699.628;2,588.14;258,813.50;100.53;0.202;N;Compliant;;261.99;1996614.5
373;2017;NonResidential;Large Office;Fourth and Blanchard;2101 Fourth Avenue;Seattle;WA;98121.0;0694000205;7.0;DOWNTOWN;47.61431;-122.34244;1979.0;1.0;24.0;543,876;116,721;427,155;Office, Parking;Office;424,044;Parking;107,300;;;;79.0;61.20;59.80;192.00;187.70;25,930,814;25,349,910;;7,599,886;25,930,811.032;;;107.28;0.197;N;Compliant;;261.99;1996614.5
374;2017;NonResidential;Mixed Use Property;ECONET (ID#374);3005 1ST AVE;SEATTLE;WA;98121.0;0695000135;7.0;DOWNTOWN;47.6177;-122.3545;1980.0;1.0;4.0;109,347;38,700;70,647;Laboratory, Office, Parking;Laboratory;42,389;Parking;38,700;Office;28,258;;;127.30;126.80;378.80;378.30;8,994,256;8,959,136;;2,428,267.5;8,285,248.71;7,090.06;709,005.96;71.93;0.658;N;Compliant;;261.99;1996614.5
375;2017;NonResidential;Large Office;Third and Broad;2901 Third Avenue;Seattle;WA;98121.0;0695000335;7.0;DOWNTOWN;47.6182;-122.352;1982.0;1.0;6.0;396,626;124,216;272,410;Office, Parking;Office;274,002;Parking;122,624;;;;72.0;72.50;71.80;227.60;225.40;19,861,542;19,669,304;;5,821,084.5;19,861,540.314;;;82.17;0.207;N;Compliant;;261.99;1996614.5
376;2017;NonResidential;Large Office;5th and Bell;2301 5th Ave;Seattle;WA;98121.0;0696000175;7.0;DOWNTOWN;47.61598;-122.34369;2002.0;1.0;6.0;287,471;83,591;203,880;Office, Other, Other - Restaurant/Bar, Parking;Office;191,814;Parking;72,178;Other - Restaurant/Bar;5,322;20,162,011,201,020,092,008;82.0;70.30;70.30;220.70;220.70;13,999,142;14,001,903;;4,102,913.25;13,999,140.009;;;57.92;0.201;N;Compliant;;261.99;1996614.5
377;2017;NonResidential;Large Office;Fifth and Wall LLC;521 Wall Street;Seattle;WA;98121.0;0697000064;7.0;DOWNTOWN;47.61734;-122.34434;1947.0;1.0;3.0;192,630;48,512;144,118;Office, Parking;Office;146,157;Parking;48,199;;;2,007;92.0;40.50;39.40;120.70;117.00;5,925,299;5,757,636.5;;1,600,391.625;5,460,536.2245;4,647.62;464,762.01;47.27;0.245;N;Compliant;;261.99;1996614.5
379;2017;NonResidential;Large Office;3101 Western Avenue;3101 Western Avenue;Seattle;WA;98121.0;0698000040;7.0;DOWNTOWN;47.6176;-122.35686;1984.0;1.0;8.0;253,103;61,986;191,117;Laboratory, Office, Other, Parking;Office;158,681;Parking;70,190;Other;21,782;2,010;1.0;176.90;176.90;555.30;555.30;32,862,192;32,862,192;;9,631,357;32,862,190.084;;;135.95;0.537;N;Compliant;;261.99;1996614.5
381;2017;NonResidential;Supermarket / Grocery Store;70500872 -- Holman Road;9999 Holman Road NW;Seattle;WA;98117.0;0767000060;6.0;NORTHWEST;47.7019;-122.36374;1956.0;1.0;1.0;60,880;0;60,880;Supermarket/Grocery Store;Supermarket;61,666;;;;;;69.0;220.20;219.90;492.40;491.80;13,581,690;13,562,542;;2,258,488;7,705,961.056;58,757.28;5,875,727.73;343.94;5.649;N;Compliant;;261.99;1996614.5
382;2017;NonResidential;Small- and Mid-Sized Office;Collins Building;524 2nd Ave;Seattle;WA;98104.0;0939000025;7.0;DOWNTOWN;47.60227;-122.33202;1900.0;1.0;5.0;50,176;0;50,176;Office, Other, Restaurant;Office;37,518;Other;8,329;Restaurant;4,253;;;67.00;64.10;200.00;190.90;3,357,531;3,213,536;;910,484.625;3,106,573.5405;2,509.57;250,957.01;26.18;0.522;N;Compliant;;261.99;1996614.5
383;2017;NonResidential;Large Office;Smith Tower;506 Second Avenue;Seattle;WA;98104.0;0939000060;7.0;DOWNTOWN;47.60198;-122.33174;1912.0;1.0;42.0;304,346;0;304,346;Office, Other - Restaurant/Bar, Retail Store, Single Family Home;Office;256,490.09375;Retail Store;7,411;Other - Restaurant/Bar;5,535;;72.0;94.80;100.00;197.70;207.40;25,739,626;25,091,806;1,197,529.25;3,709,534;12,656,930.008;118,851.65;11,885,164.84;747.25;2.455;N;Compliant;;261.99;1996614.5
384;2017;NonResidential;Warehouse;Dawn Food Products;6901 fox ave south;seattle;WA;98108.0;0001800113;2.0;GREATER DUWAMISH;47.54066;-122.33023;1977.0;1.0;1.0;128,800;0;128,800;Non-Refrigerated Warehouse, Other;Non-Refrige;119,200;Other;9,600;;;;96.0;15.20;14.40;22.00;21.20;1,952,548;1,849,045.75;;110,629.796875;377,468.8669375;15,750.79;1,575,079.10;85.21;0.662;N;Compliant;;261.99;1996614.5
385;2017;NonResidential;Large Office;Skinner Building;1326 5th Avenue;Seattle;WA;98101.0;0002400002;7.0;DOWNTOWN;47.60932;-122.33388;1927.0;1.0;8.0;226,061;0;226,061;Office, Performing Arts, Retail Store;Office;166,919;Performing Arts;39,355;Retail Store;19,787;201,820,172,016,201,520,092,008;94.0;48.30;47.80;106.90;106.30;10,910,471;10,794,426;5,210,906;1,670,446.75;5,699,564.311;;;300.60;1.33;N;Compliant;;261.99;1996614.5
386;2017;NonResidential;Large Office;IBM Building - COS;1200 5th Avenue;Seattle;WA;98101.0;0002400002;7.0;DOWNTOWN;47.60842;-122.33305;1964.0;1.0;22.0;336,330;66,430;269,900;Office, Other - Restaurant/Bar, Parking;Office;256,299;Parking;66,430;Other - Restaurant/Bar;7,438;;80.0;73.10;72.20;179.10;178.10;19,267,512;19,050,142;5,874,677;3,660,340.25;12,489,080.933;9,037.53;903,753.32;411.97;1.225;N;Compliant;;261.99;1996614.5
